[
  { "name": "Zagrebačka katedrala", "lat": 45.8144605, "lon": 15.9779267, "type": "church", "city": "Zagreb" },
  { "name": "Crkva sv. Marka", "lat": 45.8163643, "lon": 15.9735699, "type": "church", "city": "Zagreb" },
  { "name": "Katedrala sv. Jakova", "lat": 43.7356234, "lon": 15.8891543, "type": "church", "city": "Sibenik" },
  { "name": "Eufrazijeva bazilika", "lat": 45.2285812, "lon": 13.5937401, "type": "church", "city": "Porec" },
  { "name": "Katedrala sv. Dujma", "lat": 43.5083995, "lon": 16.4402120, "type": "church", "city": "Split" },
  { "name": "Crkva sv. Donata", "lat": 44.1160105, "lon": 15.2245202, "type": "church", "city": "Zadar" },
  { "name": "Katedrala sv. Stošije", "lat": 44.1162500, "lon": 15.2244400, "type": "church", "city": "Zadar" },
  { "name": "Katedrala sv. Lovre", "lat": 43.5170830, "lon": 16.2513900, "type": "church", "city": "Trogir" },
  { "name": "Đakovačka katedrala", "lat": 45.3117201, "lon": 18.4101505, "type": "church", "city": "Dakovo" },
  { "name": "Crkva sv. Vlaha", "lat": 42.6414300, "lon": 18.1106200, "type": "church", "city": "Dubrovnik" },
  { "name": "Dubrovačka katedrala", "lat": 42.6399000, "lon": 18.1104000, "type": "church", "city": "Dubrovnik" },
  { "name": "Crkva sv. Eufemije", "lat": 45.0841200, "lon": 13.6302500, "type": "church", "city": "Rovinj" },
  { "name": "Katedrala sv. Vida", "lat": 45.3269500, "lon": 14.4448500, "type": "church", "city": "Rijeka" },
  { "name": "Konkatedrala sv. Petra i Pavla", "lat": 45.5606400, "lon": 18.6766700, "type": "church", "city": "Osijek" },
  { "name": "Crkva sv. Katarine", "lat": 45.8150500, "lon": 15.9748800, "type": "church", "city": "Zagreb" },
  { "name": "Crkva sv. Marije", "lat": 44.1157500, "lon": 15.2256500, "type": "church", "city": "Zadar" },
  { "name": "Hvarska katedrala", "lat": 43.1719500, "lon": 16.4422500, "type": "church", "city": "Hvar" },
  { "name": "Korčulanska katedrala", "lat": 42.9616500, "lon": 17.1359500, "type": "church", "city": "Korcula" },
  { "name": "Sisačka katedrala", "lat": 45.4851500, "lon": 16.3742500, "type": "church", "city": "Sisak" },
  { "name": "Crkva sv. Križa", "lat": 44.2435500, "lon": 15.1837500, "type": "church", "city": "Nin" },
  { "name": "Crkva sv. Krševana", "lat": 44.1169500, "lon": 15.2258500, "type": "church", "city": "Zadar" },
  { "name": "Gospićka katedrala", "lat": 44.5394500, "lon": 15.3747500, "type": "church", "city": "Gospic" },
  { "name": "Varaždinska katedrala", "lat": 46.3075500, "lon": 16.3377500, "type": "church", "city": "Varazdin" },
  { "name": "Crkva sv. Nikole", "lat": 46.1622500, "lon": 16.8322500, "type": "church", "city": "Koprivnica" },
  { "name": "Bjelovarska katedrala", "lat": 45.8988500, "lon": 16.8422500, "type": "church", "city": "Bjelovar" },
  { "name": "Požeška katedrala", "lat": 45.3328500, "lon": 17.6756500, "type": "church", "city": "Pozega" },
  { "name": "Crkva sv. Petra", "lat": 43.5049500, "lon": 16.4478500, "type": "church", "city": "Split" },
  { "name": "Svetište Majke Božje Trsatske", "lat": 45.3315500, "lon": 14.4578500, "type": "church", "city": "Rijeka" },
  { "name": "Crkva sv. Blaža", "lat": 45.8136500, "lon": 15.9649500, "type": "church", "city": "Zagreb" },
  { "name": "Crkva sv. Ignacija", "lat": 42.6391500, "lon": 18.1098500, "type": "church", "city": "Dubrovnik" },
  { "name": "Dominikanska crkva", "lat": 42.6415500, "lon": 18.1118500, "type": "church", "city": "Dubrovnik" },
  { "name": "Crkva Gospe od Snijega", "lat": 42.5815500, "lon": 18.2195500, "type": "church", "city": "Cavtat" },
  { "name": "Crkva sv. Frane", "lat": 43.5081500, "lon": 16.4352500, "type": "church", "city": "Split" },
  { "name": "Crkva sv. Franje", "lat": 44.1139500, "lon": 15.2235500, "type": "church", "city": "Zadar" },
  { "name": "Crkva sv. Šime", "lat": 44.1125500, "lon": 15.2291500, "type": "church", "city": "Zadar" },
  { "name": "Crkva sv. Mihaela", "lat": 45.5604500, "lon": 18.6953500, "type": "church", "city": "Osijek" },
  { "name": "Crkva sv. Filipa i Jakova", "lat": 45.3508500, "lon": 19.0069500, "type": "church", "city": "Vukovar" },
  { "name": "Crkva Presvetog Trojstva", "lat": 45.4871500, "lon": 15.5552500, "type": "church", "city": "Karlovac" },
  { "name": "Bazilika Srca Isusova", "lat": 45.8105500, "lon": 15.9818500, "type": "church", "city": "Zagreb" },
  { "name": "Crkva sv. Antuna Padovanskog", "lat": 45.8164500, "lon": 15.9419500, "type": "church", "city": "Zagreb" },
  { "name": "Crkva sv. Kvirina", "lat": 45.4955500, "lon": 16.3711500, "type": "church", "city": "Sisak" },
  { "name": "Križevačka katedrala", "lat": 46.0298500, "lon": 16.5419500, "type": "church", "city": "Krizevci" },
  { "name": "Crkva sv. Marije", "lat": 45.0744500, "lon": 13.8475500, "type": "church", "city": "Bale" },
  { "name": "Crkva sv. Pelagija", "lat": 45.3148500, "lon": 13.5601500, "type": "church", "city": "Novigrad" },
  { "name": "Crkva sv. Marije Snježne", "lat": 46.1098500, "lon": 16.1264500, "type": "church", "city": "Belec" },
  { "name": "Crkva sv. Nikole", "lat": 46.3844500, "lon": 16.4335500, "type": "church", "city": "Cakovec" },
  { "name": "Crkva sv. Marije Jeruzalemske", "lat": 46.1664500, "lon": 15.8895500, "type": "church", "city": "Krapina" },
  { "name": "Crkva sv. Mihovila", "lat": 43.7341500, "lon": 15.8942500, "type": "church", "city": "Sibenik" },
  { "name": "Franjevački samostan i crkva", "lat": 42.6414500, "lon": 18.1074500, "type": "church", "city": "Dubrovnik" },
  { "name": "Crkva sv. Lucije", "lat": 44.9815500, "lon": 14.7431500, "type": "church", "city": "Baska" },
  { "name": "Crkva sv. Barbare", "lat": 43.7351230, "lon": 15.8912560, "type": "church", "city": "Sibenik" },
  { "name": "Crkva Navještenja Marijina", "lat": 45.3312340, "lon": 14.3023450, "type": "church", "city": "Opatija" },
  { "name": "Crkva sv. Jakova", "lat": 45.3341560, "lon": 14.3078900, "type": "church", "city": "Opatija" },
  { "name": "Crkva Gospe od Prizidnice", "lat": 43.4839120, "lon": 16.3644230, "type": "church", "city": "Ciovo" },
  { "name": "Crkva sv. Anselma", "lat": 44.2429450, "lon": 15.1843670, "type": "church", "city": "Nin" },
  { "name": "Crkva sv. Martina", "lat": 43.5095340, "lon": 16.4401230, "type": "church", "city": "Split" },
  { "name": "Crkva sv. Spasa", "lat": 42.6413780, "lon": 18.1071560, "type": "church", "city": "Dubrovnik" },
  { "name": "Katedrala sv. Marka", "lat": 43.2938120, "lon": 17.0201450, "type": "church", "city": "Makarska" },
  { "name": "Crkva Gospe od Zdravlja", "lat": 44.1174560, "lon": 15.2219890, "type": "church", "city": "Zadar" },
  { "name": "Crkva sv. Ivana", "lat": 43.5170340, "lon": 16.2504670, "type": "church", "city": "Trogir" },
  { "name": "Crkva Gospe od Poljuda", "lat": 43.5208900, "lon": 16.4314120, "type": "church", "city": "Split" },
  { "name": "Crkva sv. Dominika", "lat": 43.5165230, "lon": 16.2528450, "type": "church", "city": "Trogir" },
  { "name": "Krčka katedrala", "lat": 45.0261670, "lon": 14.5755890, "type": "church", "city": "Krk" },
  { "name": "Rabska katedrala", "lat": 44.7548340, "lon": 14.7602120, "type": "church", "city": "Rab" },
  { "name": "Crkva sv. Justine", "lat": 44.7562450, "lon": 14.7608560, "type": "church", "city": "Rab" },
  { "name": "Crkva sv. Marije na Dančama", "lat": 42.6405780, "lon": 18.1009340, "type": "church", "city": "Dubrovnik" },
  { "name": "Crkva sv. Roka", "lat": 42.6401900, "lon": 18.1091230, "type": "church", "city": "Dubrovnik" },
  { "name": "Svetište Gospe Sinjske", "lat": 43.7031450, "lon": 16.6369670, "type": "church", "city": "Sinj" },
  { "name": "Crkva sv. Ksavera", "lat": 45.8365120, "lon": 15.9751340, "type": "church", "city": "Zagreb" },
  { "name": "Crkva sv. Josipa", "lat": 45.8041560, "lon": 15.9575890, "type": "church", "city": "Zagreb" },
  { "name": "Crkva sv. Petra", "lat": 45.8142670, "lon": 15.9912120, "type": "church", "city": "Zagreb" },
  { "name": "Crkva sv. Antuna Padovanskog", "lat": 45.6144890, "lon": 18.0931340, "type": "church", "city": "Nasice" },
  { "name": "Crkva sv. Roka", "lat": 45.8317560, "lon": 17.3855780, "type": "church", "city": "Virovitica" },
  { "name": "Crkva sv. Lovre", "lat": 45.3345230, "lon": 17.6782450, "type": "church", "city": "Pozega" },
  { "name": "Crkva sv. Petra i Pavla", "lat": 45.4828120, "lon": 16.7811670, "type": "church", "city": "Kutina" },
  { "name": "Crkva sv. Anastazije", "lat": 45.8016340, "lon": 15.7119890, "type": "church", "city": "Samobor" },
  { "name": "Crkva Uznesenja Blažene Djevice Marije", "lat": 44.4449560, "lon": 15.0568120, "type": "church", "city": "Pag" },
  { "name": "Crkva sv. Jurja", "lat": 43.5878230, "lon": 15.9234450, "type": "church", "city": "Primosten" },
  { "name": "Crkva sv. Jeronima", "lat": 43.5065670, "lon": 16.4069890, "type": "church", "city": "Split" },
  { "name": "Crkva sv. Martina", "lat": 45.1492340, "lon": 13.6025120, "type": "church", "city": "Vrsar" },
  { "name": "Crkva sv. Marije od Milosti", "lat": 43.1738560, "lon": 16.4485340, "type": "church", "city": "Hvar" },
  { "name": "Crkva Gospe od Špinuta", "lat": 43.5152890, "lon": 16.4255670, "type": "church", "city": "Split" },
  { "name": "Crkva sv. Nikole", "lat": 45.2392120, "lon": 13.9381450, "type": "church", "city": "Pazin" },
  { "name": "Crkva Marije Pomoćnice", "lat": 45.3288450, "lon": 14.4344780, "type": "church", "city": "Rijeka" },
  { "name": "Crkva sv. Nikole Putnika", "lat": 43.5098230, "lon": 16.4211560, "type": "church", "city": "Split" },
  { "name": "Crkva sv. Duha", "lat": 42.6411670, "lon": 18.1085890, "type": "church", "city": "Dubrovnik" },
  { "name": "Crkva sv. Andrije", "lat": 42.6395340, "lon": 18.1064120, "type": "church", "city": "Dubrovnik" },
  { "name": "Crkva sv. Nediljice", "lat": 44.1132560, "lon": 15.2281340, "type": "church", "city": "Zadar" },
  { "name": "Crkva Gospe Loretske", "lat": 44.1039890, "lon": 15.2442560, "type": "church", "city": "Zadar" },
  { "name": "Crkva sv. Franje", "lat": 43.4431230, "lon": 17.2185780, "type": "church", "city": "Imotski" },
  { "name": "Crkva sv. Ilije", "lat": 43.0544560, "lon": 17.6502120, "type": "church", "city": "Metkovic" },
  { "name": "Crkva sv. Antuna Padovanskog", "lat": 44.0355890, "lon": 16.1956340, "type": "church", "city": "Knin" },
  { "name": "Crkva sv. Marije Kraljice Mira", "lat": 45.4741450, "lon": 16.3865670, "type": "church", "city": "Sisak" },
  { "name": "Crkva sv. Nikole", "lat": 45.6711230, "lon": 15.6485890, "type": "church", "city": "Jastrebarsko" },
  { "name": "Crkva sv. Vida", "lat": 45.6148670, "lon": 15.4789120, "type": "church", "city": "Ozalj" },
  { "name": "Crkva sv. Leonarda", "lat": 45.7831340, "lon": 15.6558450, "type": "church", "city": "Kotari" },
  { "name": "Crkva sv. Marije Snježne", "lat": 45.4952560, "lon": 15.5581780, "type": "church", "city": "Karlovac" },
  { "name": "Crkva sv. Jurja", "lat": 45.3045890, "lon": 14.3978230, "type": "church", "city": "Lovran" },
  { "name": "Crkva sv. Ivana Krstitelja", "lat": 45.9592120, "lon": 16.2425560, "type": "church", "city": "Sveti Ivan Zelina" },
  { "name": "Crkva sv. Barbare", "lat": 45.7335450, "lon": 16.0331890, "type": "church", "city": "Velika Mlaka" },
  { "name": "Muzej prekinutih veza", "lat": 45.8151250, "lon": 15.9735620, "type": "museum", "city": "Zagreb" },
  { "name": "Muzej suvremene umjetnosti", "lat": 45.7770980, "lon": 15.9818550, "type": "museum", "city": "Zagreb" },
  { "name": "Arheološki muzej u Zagrebu", "lat": 45.8113540, "lon": 15.9774120, "type": "museum", "city": "Zagreb" },
  { "name": "Muzej Mimara", "lat": 45.8094230, "lon": 15.9701450, "type": "museum", "city": "Zagreb" },
  { "name": "Muzej za umjetnost i obrt", "lat": 45.8105670, "lon": 15.9696340, "type": "museum", "city": "Zagreb" },
  { "name": "Tehnički muzej Nikola Tesla", "lat": 45.8039120, "lon": 15.9680560, "type": "museum", "city": "Zagreb" },
  { "name": "Etnografski muzej", "lat": 45.8100230, "lon": 15.9723890, "type": "museum", "city": "Zagreb" },
  { "name": "Muzej grada Zagreba", "lat": 45.8180670, "lon": 15.9744120, "type": "museum", "city": "Zagreb" },
  { "name": "Hrvatski muzej naivne umjetnosti", "lat": 45.8152340, "lon": 15.9732560, "type": "museum", "city": "Zagreb" },
  { "name": "Hrvatski povijesni muzej", "lat": 45.8166890, "lon": 15.9741450, "type": "museum", "city": "Zagreb" },
  { "name": "Hrvatski prirodoslovni muzej", "lat": 45.8173120, "lon": 15.9745780, "type": "museum", "city": "Zagreb" },
  { "name": "Tiflološki muzej", "lat": 45.8102450, "lon": 15.9815230, "type": "museum", "city": "Zagreb" },
  { "name": "Muzej iluzija", "lat": 45.8129670, "lon": 15.9698120, "type": "museum", "city": "Zagreb" },
  { "name": "Muzej čokolade Zagreb", "lat": 45.8118340, "lon": 15.9738900, "type": "museum", "city": "Zagreb" },
  { "name": "Muzej automobila Ferdinand Budicki", "lat": 45.8194560, "lon": 15.9912780, "type": "museum", "city": "Zagreb" },
  { "name": "Zagreb 80-ih muzej", "lat": 45.8145120, "lon": 15.9751450, "type": "museum", "city": "Zagreb" },
  { "name": "Muzej policije", "lat": 45.8169340, "lon": 15.9234670, "type": "museum", "city": "Zagreb" },
  { "name": "Hrvatski školski muzej", "lat": 45.8103560, "lon": 15.9705890, "type": "museum", "city": "Zagreb" },
  { "name": "Lovački muzej", "lat": 45.8236120, "lon": 15.9701340, "type": "museum", "city": "Zagreb" },
  { "name": "Muzej mamurluka", "lat": 45.8112450, "lon": 15.9798670, "type": "museum", "city": "Zagreb" },
  { "name": "Arheološki muzej u Splitu", "lat": 43.5147890, "lon": 16.4357120, "type": "museum", "city": "Split" },
  { "name": "Muzej grada Splita", "lat": 43.5091230, "lon": 16.4404560, "type": "museum", "city": "Split" },
  { "name": "Muzej hrvatskih arheoloških spomenika", "lat": 43.5113450, "lon": 16.4217890, "type": "museum", "city": "Split" },
  { "name": "Hrvatski pomorski muzej Split", "lat": 43.5097670, "lon": 16.4468340, "type": "museum", "city": "Split" },
  { "name": "Etnografski muzej Split", "lat": 43.5079120, "lon": 16.4403450, "type": "museum", "city": "Split" },
  { "name": "Prirodoslovni muzej i zoološki vrt", "lat": 43.5094560, "lon": 16.4305780, "type": "museum", "city": "Split" },
  { "name": "Riznica splitske katedrale", "lat": 43.5085340, "lon": 16.4403120, "type": "museum", "city": "Split" },
  { "name": "Muzej Domovinskog rata u Splitu", "lat": 43.5118900, "lon": 16.4485230, "type": "museum", "city": "Split" },
  { "name": "Froggyland", "lat": 43.5101450, "lon": 16.4389670, "type": "museum", "city": "Split" },
  { "name": "Arheološki muzej Zadar", "lat": 44.1158230, "lon": 15.2248560, "type": "museum", "city": "Zadar" },
  { "name": "Muzej antičkog stakla", "lat": 44.1136780, "lon": 15.2299120, "type": "museum", "city": "Zadar" },
  { "name": "Narodni muzej Zadar", "lat": 44.1150450, "lon": 15.2268340, "type": "museum", "city": "Zadar" },
  { "name": "Muzej iluzija Zadar", "lat": 44.1129890, "lon": 15.2295670, "type": "museum", "city": "Zadar" },
  { "name": "Arheološki muzej Istre", "lat": 44.8694120, "lon": 13.8475340, "type": "museum", "city": "Pula" },
  { "name": "Povijesni i pomorski muzej Istre", "lat": 44.8705670, "lon": 13.8451890, "type": "museum", "city": "Pula" },
  { "name": "Muzej suvremene umjetnosti Istre", "lat": 44.8718340, "lon": 13.8465120, "type": "museum", "city": "Pula" },
  { "name": "MEMO muzej Pula", "lat": 44.8702450, "lon": 13.8488670, "type": "museum", "city": "Pula" },
  { "name": "Pomorski i povijesni muzej Hrvatskog primorja", "lat": 45.3304120, "lon": 14.4429560, "type": "museum", "city": "Rijeka" },
  { "name": "Muzej grada Rijeke", "lat": 45.3289670, "lon": 14.4421340, "type": "museum", "city": "Rijeka" },
  { "name": "Prirodoslovni muzej Rijeka", "lat": 45.3312890, "lon": 14.4423780, "type": "museum", "city": "Rijeka" },
  { "name": "Muzej moderne i suvremene umjetnosti", "lat": 45.3281450, "lon": 14.4365120, "type": "museum", "city": "Rijeka" },
  { "name": "PEEK&POKE Muzej računala", "lat": 45.3275670, "lon": 14.4475230, "type": "museum", "city": "Rijeka" },
  { "name": "Muzej Slavonije", "lat": 45.5606890, "lon": 18.6961340, "type": "museum", "city": "Osijek" },
  { "name": "Arheološki muzej Osijek", "lat": 45.5615340, "lon": 18.6948670, "type": "museum", "city": "Osijek" },
  { "name": "Kulturno-povijesni muzej", "lat": 42.6402560, "lon": 18.1105120, "type": "museum", "city": "Dubrovnik" },
  { "name": "Pomorski muzej Dubrovnik", "lat": 42.6397890, "lon": 18.1133450, "type": "museum", "city": "Dubrovnik" },
  { "name": "Etnografski muzej Rupe", "lat": 42.6392340, "lon": 18.1075670, "type": "museum", "city": "Dubrovnik" },
  { "name": "Muzej Domovinskog rata Dubrovnik", "lat": 42.6489120, "lon": 18.1118340, "type": "museum", "city": "Dubrovnik" },
  { "name": "Muzej samostana Male braće", "lat": 42.6415670, "lon": 18.1073890, "type": "museum", "city": "Dubrovnik" },
  { "name": "War Photo Limited", "lat": 42.6409450, "lon": 18.1092120, "type": "museum", "city": "Dubrovnik" },
  { "name": "Gradski muzej Varaždin", "lat": 46.3089123, "lon": 16.3345678, "type": "museum", "city": "Varazdin" },
  { "name": "Muzej krapinskih neandertalaca", "lat": 46.1643210, "lon": 15.8647890, "type": "museum", "city": "Krapina" },
  { "name": "Muzej vučedolske kulture", "lat": 45.3344567, "lon": 19.0601234, "type": "museum", "city": "Vukovar" },
  { "name": "Gradski muzej Vukovar", "lat": 45.3524123, "lon": 19.0039876, "type": "museum", "city": "Vukovar" },
  { "name": "Muzej Apoksiomena", "lat": 44.5323456, "lon": 14.4665432, "type": "museum", "city": "Mali Losinj" },
  { "name": "Gradski muzej Karlovac", "lat": 45.4925678, "lon": 15.5548901, "type": "museum", "city": "Karlovac" },
  { "name": "Muzej Domovinskog rata Karlovac", "lat": 45.4619123, "lon": 15.5621345, "type": "museum", "city": "Karlovac" },
  { "name": "Aquatika - Slatkovodni akvarij Karlovac", "lat": 45.4855678, "lon": 15.5612345, "type": "museum", "city": "Karlovac" },
  { "name": "Gradski muzej Šibenik", "lat": 43.7348901, "lon": 15.8895678, "type": "museum", "city": "Sibenik" },
  { "name": "Civitas Sacra - Interpretacijski centar", "lat": 43.7351234, "lon": 15.8912345, "type": "museum", "city": "Sibenik" },
  { "name": "Muzej grada Kaštela", "lat": 43.5489123, "lon": 16.3312345, "type": "museum", "city": "Kastela" },
  { "name": "Muzej grada Trogira", "lat": 43.5175678, "lon": 16.2505678, "type": "museum", "city": "Trogir" },
  { "name": "Arheološki muzej Narona", "lat": 43.0811234, "lon": 17.6278901, "type": "museum", "city": "Metkovic" },
  { "name": "Gradski muzej Korčula", "lat": 42.9615678, "lon": 17.1357890, "type": "museum", "city": "Korcula" },
  { "name": "Zavičajni muzej Poreštine", "lat": 45.2281234, "lon": 13.5931234, "type": "museum", "city": "Porec" },
  { "name": "Zavičajni muzej grada Rovinja", "lat": 45.0825678, "lon": 13.6335678, "type": "museum", "city": "Rovinj" },
  { "name": "Ekomuzej Batana", "lat": 45.0821234, "lon": 13.6322345, "type": "museum", "city": "Rovinj" },
  { "name": "Etnografski muzej Istre", "lat": 45.2405678, "lon": 13.9392345, "type": "museum", "city": "Pazin" },
  { "name": "Muzej grada Pazina", "lat": 45.2404115, "lon": 13.9391223, "type": "museum", "city": "Pazin" },
  { "name": "Muzej Međimurja Čakovec", "lat": 46.3844888, "lon": 16.4340555, "type": "museum", "city": "Cakovec" },
  { "name": "Gradski muzej Požega", "lat": 45.3331456, "lon": 17.6765234, "type": "museum", "city": "Pozega" },
  { "name": "Gradski muzej Bjelovar", "lat": 45.8992345, "lon": 16.8431567, "type": "museum", "city": "Bjelovar" },
  { "name": "Gradski muzej Sisak", "lat": 45.4852123, "lon": 16.3751890, "type": "museum", "city": "Sisak" },
  { "name": "Muzej seljačkih buna", "lat": 45.9892567, "lon": 15.9712345, "type": "museum", "city": "Gornja Stubica" },
  { "name": "Gradski muzej Vinkovci", "lat": 45.2882110, "lon": 18.8055440, "type": "museum", "city": "Vinkovci" },
  { "name": "Muzej grada Koprivnice", "lat": 46.1625678, "lon": 16.8305123, "type": "museum", "city": "Koprivnica" },
  { "name": "Muzej Đakovštine", "lat": 45.3111234, "lon": 18.4112567, "type": "museum", "city": "Dakovo" },
  { "name": "Muzej ninskih starina", "lat": 44.2431678, "lon": 15.1835123, "type": "museum", "city": "Nin" },
  { "name": "Muzej solane Nin", "lat": 44.2411890, "lon": 15.1925678, "type": "museum", "city": "Nin" },
  { "name": "Muzej Croata insulanus", "lat": 46.3452345, "lon": 16.6341234, "type": "museum", "city": "Prelog" },
  { "name": "Zavičajni muzej Buzet", "lat": 45.4082567, "lon": 13.9645123, "type": "museum", "city": "Buzet" },
  { "name": "Muzej Lapidarium", "lat": 45.3151234, "lon": 13.5605678, "type": "museum", "city": "Novigrad" },
  { "name": "Muzej betinske drvene brodogradnje", "lat": 43.8272567, "lon": 15.6035123, "type": "museum", "city": "Betina" },
  { "name": "Gradski muzej Senj", "lat": 44.9892345, "lon": 14.9042567, "type": "museum", "city": "Senj" },
  { "name": "Muzej Gacke", "lat": 44.8712567, "lon": 15.2341234, "type": "museum", "city": "Otočac" },
  { "name": "Zavičajni muzej Ogulin", "lat": 45.2661890, "lon": 15.2235678, "type": "museum", "city": "Ogulin" },
  { "name": "Planinarski muzej", "lat": 45.2655123, "lon": 15.2241567, "type": "museum", "city": "Ogulin" },
  { "name": "Zavičajni muzej Našice", "lat": 45.4912345, "lon": 18.0921567, "type": "museum", "city": "Nasice" },
  { "name": "Gradski muzej Drniš", "lat": 43.8631234, "lon": 16.1512567, "type": "museum", "city": "Drnis" },
  { "name": "Kninski muzej", "lat": 44.0321567, "lon": 16.1915234, "type": "museum", "city": "Knin" },
  { "name": "Muzej planinarstva", "lat": 46.2162345, "lon": 16.1245678, "type": "museum", "city": "Ivanec" },
  { "name": "Muzej Radboa", "lat": 46.1661234, "lon": 15.9182567, "type": "museum", "city": "Radoboj" },
  { "name": "Muzej grada Pakraca", "lat": 45.4371567, "lon": 17.1912345, "type": "museum", "city": "Pakrac" },
  { "name": "Zavičajni muzej Daruvar", "lat": 45.5925123, "lon": 17.2241567, "type": "museum", "city": "Daruvar" },
  { "name": "Muzej Moslavine", "lat": 45.4815678, "lon": 16.7801234, "type": "museum", "city": "Kutina" },
  { "name": "Zavičajni muzej Biograd na Moru", "lat": 43.9381234, "lon": 15.4432567, "type": "museum", "city": "Biograd na Moru" },
  { "name": "Gradski muzej Makarska", "lat": 43.2942567, "lon": 17.0185123, "type": "museum", "city": "Makarska" },
  { "name": "Malakološki muzej", "lat": 43.2925123, "lon": 17.0221567, "type": "museum", "city": "Makarska" },
  { "name": "Muzej triljskog kraja", "lat": 43.6165678, "lon": 16.7252345, "type": "museum", "city": "Trilj" },
  { "name": "Muzej sinjske alke", "lat": 43.7024881, "lon": 16.6355223, "type": "museum", "city": "Sinj" },
  { "name": "Dvorac Trakošćan", "lat": 46.2585251, "lon": 15.9510082, "type": "castle", "city": "Bednja" },
  { "name": "Dvorac Veliki Tabor", "lat": 46.1543884, "lon": 15.6513615, "type": "castle", "city": "Desinic" },
  { "name": "Tvrđava Klis", "lat": 43.5601235, "lon": 16.5238124, "type": "castle", "city": "Klis" },
  { "name": "Kninska tvrđava", "lat": 44.0322123, "lon": 16.1917567, "type": "castle", "city": "Knin" },
  { "name": "Tvrđava Brod", "lat": 45.1554678, "lon": 18.0125345, "type": "castle", "city": "Slavonski Brod" },
  { "name": "Dvorac Odescalchi", "lat": 45.2241567, "lon": 19.3735123, "type": "castle", "city": "Ilok" },
  { "name": "Stari grad Čakovec", "lat": 46.3845234, "lon": 16.4344567, "type": "castle", "city": "Cakovec" },
  { "name": "Dvorac Prandau-Normann", "lat": 45.6592345, "lon": 18.4144123, "type": "castle", "city": "Valpovo" },
  { "name": "Dvorac Pejačević Našice", "lat": 45.4915678, "lon": 18.0921234, "type": "castle", "city": "Nasice" },
  { "name": "Dvorac Pejačević Virovitica", "lat": 45.8322456, "lon": 17.3851567, "type": "castle", "city": "Virovitica" },
  { "name": "Dvorac Eltz", "lat": 45.3521123, "lon": 19.0041345, "type": "castle", "city": "Vukovar" },
  { "name": "Tvrđava sv. Nikole", "lat": 43.7214567, "lon": 15.8524123, "type": "castle", "city": "Sibenik" },
  { "name": "Tvrđava Lovrijenac", "lat": 42.6411234, "lon": 18.1044567, "type": "castle", "city": "Dubrovnik" },
  { "name": "Tvrđava Revelin", "lat": 42.6416789, "lon": 18.1126123, "type": "castle", "city": "Dubrovnik" },
  { "name": "Tvrđava Minčeta", "lat": 42.6424345, "lon": 18.1086567, "type": "castle", "city": "Dubrovnik" },
  { "name": "Tvrđava Bokar", "lat": 42.6405123, "lon": 18.1058234, "type": "castle", "city": "Dubrovnik" },
  { "name": "Gradina Trsat", "lat": 45.3315678, "lon": 14.4561234, "type": "castle", "city": "Rijeka" },
  { "name": "Tvrđava Nehaj", "lat": 44.9888123, "lon": 14.9042345, "type": "castle", "city": "Senj" },
  { "name": "Kaštel Pazin", "lat": 45.2404567, "lon": 13.9391567, "type": "castle", "city": "Pazin" },
  { "name": "Kaštel Morosini-Grimani", "lat": 45.0872345, "lon": 13.8824123, "type": "castle", "city": "Svetvincenat" },
  { "name": "Dvigrad", "lat": 45.1258123, "lon": 13.8118345, "type": "castle", "city": "Kanfanar" },
  { "name": "Stari grad Đurđevac", "lat": 46.0424567, "lon": 17.0781234, "type": "castle", "city": "Durdevac" },
  { "name": "Stari grad Sisak", "lat": 45.4744123, "lon": 16.3912345, "type": "castle", "city": "Sisak" },
  { "name": "Stari grad Samobor", "lat": 45.8005678, "lon": 15.7025123, "type": "castle", "city": "Samobor" },
  { "name": "Stari grad Okić", "lat": 45.7508234, "lon": 15.7011456, "type": "castle", "city": "Sveti Martin pod Okicem" },
  { "name": "Gradina Drivenik", "lat": 45.2405678, "lon": 14.6542123, "type": "castle", "city": "Drivenik" },
  { "name": "Gradina Hreljin", "lat": 45.2858123, "lon": 14.6065345, "type": "castle", "city": "Hreljin" },
  { "name": "Gradina Grižane", "lat": 45.1848567, "lon": 14.7332123, "type": "castle", "city": "Grizane" },
  { "name": "Tvrđava Badanj", "lat": 45.1764123, "lon": 14.7078345, "type": "castle", "city": "Crikvenica" },
  { "name": "Tvrđava Kamičak", "lat": 43.7024567, "lon": 16.6361234, "type": "castle", "city": "Sinj" },
  { "name": "Tvrđava Prozor", "lat": 43.9105123, "lon": 16.4024567, "type": "castle", "city": "Vrlika" },
  { "name": "Tvrđava Glavaš", "lat": 43.9452345, "lon": 16.4172123, "type": "castle", "city": "Civljane" },
  { "name": "Tvrđava Fortica Hvar", "lat": 43.1751234, "lon": 16.4428567, "type": "castle", "city": "Hvar" },
  { "name": "Tvrđava Fortica Omiš", "lat": 43.4442123, "lon": 16.6948345, "type": "castle", "city": "Omis" },
  { "name": "Tvrđava Starigrad", "lat": 43.4474567, "lon": 16.7001234, "type": "castle", "city": "Omis" },
  { "name": "Tvrđava sv. Mihovila Preko", "lat": 44.0932123, "lon": 15.1508345, "type": "castle", "city": "Preko" },
  { "name": "Kula Kamerlengo", "lat": 43.5152345, "lon": 16.2474123, "type": "castle", "city": "Trogir" },
  { "name": "Kula svetog Marka Trogir", "lat": 43.5162567, "lon": 16.2482345, "type": "castle", "city": "Trogir" },
  { "name": "Mletačka kula Split", "lat": 43.5074123, "lon": 16.4385678, "type": "castle", "city": "Split" },
  { "name": "Tvrđava Gripe", "lat": 43.5095234, "lon": 16.4524123, "type": "castle", "city": "Split" },
  { "name": "Tvrđava Mirabella", "lat": 43.4452123, "lon": 16.6914345, "type": "castle", "city": "Omis" },
  { "name": "Tvrđava Sokol", "lat": 42.5485678, "lon": 18.3768123, "type": "castle", "city": "Dunave" },
  { "name": "Kaštilac", "lat": 43.5539123, "lon": 16.3921345, "type": "castle", "city": "Kastel Gomilica" },
  { "name": "Kaštel Vitturi", "lat": 43.5532567, "lon": 16.3725123, "type": "castle", "city": "Kastel Luksic" },
  { "name": "Kaštel Rotondo", "lat": 43.5541234, "lon": 16.3414567, "type": "castle", "city": "Kastel Stafilic" },
  { "name": "Tvrđava Barone", "lat": 43.7385123, "lon": 15.8954345, "type": "castle", "city": "Sibenik" },
  { "name": "Stari grad Dubovac", "lat": 45.4951234, "lon": 15.5284567, "type": "castle", "city": "Karlovac" },
  { "name": "Stari grad Ozalj", "lat": 45.6151678, "lon": 15.4741234, "type": "castle", "city": "Ozalj" },
  { "name": "Medvedgrad", "lat": 45.8715123, "lon": 15.9412345, "type": "castle", "city": "Zagreb" },
  { "name": "Dvorac Maruševec", "lat": 46.2861234, "lon": 16.1855678, "type": "castle", "city": "Marusevec" },
  { "name": "Umjetnički paviljon", "lat": 45.8078345, "lon": 15.9785123, "type": "gallery", "city": "Zagreb" },
  { "name": "Moderna galerija", "lat": 45.8105678, "lon": 15.9791234, "type": "gallery", "city": "Zagreb" },
  { "name": "Galerija Meštrović", "lat": 43.5065123, "lon": 16.4158567, "type": "gallery", "city": "Split" },
  { "name": "Atelijer Meštrović", "lat": 45.8164890, "lon": 15.9741234, "type": "gallery", "city": "Zagreb" },
  { "name": "Umjetnička galerija Dubrovnik", "lat": 42.6414567, "lon": 18.1172890, "type": "gallery", "city": "Dubrovnik" },
  { "name": "Galerija Klovićevi dvori", "lat": 45.8152123, "lon": 15.9741567, "type": "gallery", "city": "Zagreb" },
  { "name": "Strossmayerova galerija starih majstora", "lat": 45.8094567, "lon": 15.9781234, "type": "gallery", "city": "Zagreb" },
  { "name": "Gliptoteka HAZU", "lat": 45.8235678, "lon": 15.9764123, "type": "gallery", "city": "Zagreb" },
  { "name": "Kabinet grafike HAZU", "lat": 45.8115678, "lon": 15.9774567, "type": "gallery", "city": "Zagreb" },
  { "name": "Galerija Krsto Hegedušić", "lat": 45.4412345, "lon": 16.2842123, "type": "gallery", "city": "Petrinja" },
  { "name": "Galerija umjetnina Split", "lat": 43.5125123, "lon": 16.4395678, "type": "gallery", "city": "Split" },
  { "name": "Galerija Vjekoslav Karas", "lat": 45.4985678, "lon": 15.5484123, "type": "gallery", "city": "Karlovac" },
  { "name": "Galerija grada Krapine", "lat": 46.1625123, "lon": 15.8741567, "type": "gallery", "city": "Krapina" },
  { "name": "Gradska galerija Striegl", "lat": 45.4851234, "lon": 16.3745678, "type": "gallery", "city": "Sisak" },
  { "name": "Galerija Ružić", "lat": 45.1555123, "lon": 18.0124567, "type": "gallery", "city": "Slavonski Brod" },
  { "name": "Galerija Galženica", "lat": 45.7144567, "lon": 16.0711234, "type": "gallery", "city": "Velika Gorica" },
  { "name": "Galerija Vlaho Bukovac", "lat": 42.5815678, "lon": 18.2185123, "type": "gallery", "city": "Cavtat" },
  { "name": "Galerija Dulčić Masle Pulitika", "lat": 42.6401234, "lon": 18.1105678, "type": "gallery", "city": "Dubrovnik" },
  { "name": "Galerija Antuna Augustinčića", "lat": 46.0465123, "lon": 15.7118901, "type": "gallery", "city": "Klanjec" },
  { "name": "Galerija umjetnina Zadar", "lat": 44.1144567, "lon": 15.2281234, "type": "gallery", "city": "Zadar" },
  { "name": "Lauba", "lat": 45.8115678, "lon": 15.9412345, "type": "gallery", "city": "Zagreb" },
  { "name": "Galerija Forum", "lat": 45.8124567, "lon": 15.9751234, "type": "gallery", "city": "Zagreb" },
  { "name": "Galerija SC", "lat": 45.8035123, "lon": 15.9674567, "type": "gallery", "city": "Zagreb" },
  { "name": "Galerija VN", "lat": 45.8122345, "lon": 15.9701234, "type": "gallery", "city": "Zagreb" },
  { "name": "Galerija Matice hrvatske", "lat": 45.8074567, "lon": 15.9811234, "type": "gallery", "city": "Zagreb" },
  { "name": "Galerija Kula", "lat": 43.5105678, "lon": 16.4381234, "type": "gallery", "city": "Split" },
  { "name": "Salon Galić", "lat": 43.5101234, "lon": 16.4392567, "type": "gallery", "city": "Split" },
  { "name": "Galerija Fotoklub Split", "lat": 43.5102345, "lon": 16.4394123, "type": "gallery", "city": "Split" },
  { "name": "Galerija umjetnina Bol", "lat": 43.2612345, "lon": 16.6565678, "type": "gallery", "city": "Bol" },
  { "name": "Galerija Decumanus", "lat": 45.0264123, "lon": 14.5751234, "type": "gallery", "city": "Krk" },
  { "name": "Galerija Kortil", "lat": 45.3275678, "lon": 14.4501234, "type": "gallery", "city": "Rijeka" },
  { "name": "Galerija Juraj Klović", "lat": 45.3265123, "lon": 14.4441567, "type": "gallery", "city": "Rijeka" },
  { "name": "Gradska galerija Labin", "lat": 45.0935678, "lon": 14.1235123, "type": "gallery", "city": "Labin" },
  { "name": "Galerija Alvona", "lat": 45.0931234, "lon": 14.1241567, "type": "gallery", "city": "Labin" },
  { "name": "Galerija Zuccato", "lat": 45.2274567, "lon": 13.5931234, "type": "gallery", "city": "Porec" },
  { "name": "Galerija Rigo", "lat": 45.3151234, "lon": 13.5601567, "type": "gallery", "city": "Novigrad" },
  { "name": "Galerija Batana", "lat": 45.0825678, "lon": 13.6324123, "type": "gallery", "city": "Rovinj" },
  { "name": "Galerija Adris", "lat": 45.0815123, "lon": 13.6351234, "type": "gallery", "city": "Rovinj" },
  { "name": "Galerija Fonticus", "lat": 45.3781234, "lon": 13.7225678, "type": "gallery", "city": "Groznjan" },
  { "name": "Galerija Sebastijan", "lat": 42.6405678, "lon": 18.1101234, "type": "gallery", "city": "Dubrovnik" },
  { "name": "Galerija Otok", "lat": 42.6401234, "lon": 18.1131567, "type": "gallery", "city": "Dubrovnik" },
  { "name": "Galerija Flora", "lat": 42.6415123, "lon": 18.1171234, "type": "gallery", "city": "Dubrovnik" },
  { "name": "Galerija Gal", "lat": 45.3268567, "lon": 14.4452123, "type": "gallery", "city": "Rijeka" },
  { "name": "Galerija Emanuel Vidović", "lat": 43.5085123, "lon": 16.4412345, "type": "gallery", "city": "Split" },
  { "name": "Galerija Branislav Dešković", "lat": 43.2611234, "lon": 16.6561567, "type": "gallery", "city": "Bol" },
  { "name": "Galerija ljetnikovac Bunić-Kaboga", "lat": 42.6631234, "lon": 18.0825678, "type": "gallery", "city": "Dubrovnik" },
  { "name": "Galerija Krševan", "lat": 43.7351234, "lon": 15.8901567, "type": "gallery", "city": "Sibenik" },
  { "name": "Galerija Šira", "lat": 45.8112345, "lon": 15.9681234, "type": "gallery", "city": "Zagreb" },
  { "name": "Galerija Bačva", "lat": 45.8105678, "lon": 15.9861234, "type": "gallery", "city": "Zagreb" },
  { "name": "Galerija Prsten", "lat": 45.8106123, "lon": 15.9861567, "type": "gallery", "city": "Zagreb" },
  { "name": "Dioklecijanova palača", "lat": 43.5081321, "lon": 16.4401987, "type": "historic_site", "city": "Split" },
  { "name": "Dubrovačke gradske zidine", "lat": 42.6411567, "lon": 18.1072345, "type": "historic_site", "city": "Dubrovnik" },
  { "name": "Pulska Arena", "lat": 44.8732112, "lon": 13.8501556, "type": "historic_site", "city": "Pula" },
  { "name": "Starogradsko polje", "lat": 43.1824567, "lon": 16.6015123, "type": "historic_site", "city": "Stari Grad" },
  { "name": "Rimska Salona", "lat": 43.5385123, "lon": 16.4832567, "type": "historic_site", "city": "Solin" },
  { "name": "Rimski forum u Zadru", "lat": 44.1158123, "lon": 15.2245678, "type": "historic_site", "city": "Zadar" },
  { "name": "Stonske zidine", "lat": 42.8412345, "lon": 17.6971234, "type": "historic_site", "city": "Ston" },
  { "name": "Augustov hram", "lat": 44.8702123, "lon": 13.8419567, "type": "historic_site", "city": "Pula" },
  { "name": "Slavoluk Sergijevaca", "lat": 44.8681234, "lon": 13.8475678, "type": "historic_site", "city": "Pula" },
  { "name": "Arheološki lokalitet Vučedol", "lat": 45.3364567, "lon": 19.0585123, "type": "historic_site", "city": "Vukovar" },
  { "name": "Hušnjakovo brdo (Krapinski pračovjek)", "lat": 46.1645123, "lon": 15.8645678, "type": "historic_site", "city": "Krapina" },
  { "name": "Povijesna jezgra Trogira", "lat": 43.5172345, "lon": 16.2515123, "type": "historic_site", "city": "Trogir" },
  { "name": "Vrata od Pila", "lat": 42.6414567, "lon": 18.1069123, "type": "historic_site", "city": "Dubrovnik" },
  { "name": "Vrata od Ploča", "lat": 42.6416123, "lon": 18.1124567, "type": "historic_site", "city": "Dubrovnik" },
  { "name": "Peristil", "lat": 43.5083123, "lon": 16.4404567, "type": "historic_site", "city": "Split" },
  { "name": "Jupiterov hram", "lat": 43.5081234, "lon": 16.4398567, "type": "historic_site", "city": "Split" },
  { "name": "Zlatna vrata", "lat": 43.5094123, "lon": 16.4404567, "type": "historic_site", "city": "Split" },
  { "name": "Srebrna vrata", "lat": 43.5085123, "lon": 16.4411234, "type": "historic_site", "city": "Split" },
  { "name": "Željezna vrata", "lat": 43.5083567, "lon": 16.4392123, "type": "historic_site", "city": "Split" },
  { "name": "Mjedena vrata", "lat": 43.5074123, "lon": 16.4404567, "type": "historic_site", "city": "Split" },
  { "name": "Povijesna jezgra Varaždina", "lat": 46.3072123, "lon": 16.3375678, "type": "historic_site", "city": "Varazdin" },
  { "name": "Andautonija", "lat": 45.7665123, "lon": 16.1165678, "type": "historic_site", "city": "Scitarjevo" },
  { "name": "Aquae Iasae", "lat": 46.2125123, "lon": 16.3884567, "type": "historic_site", "city": "Varazdinske Toplice" },
  { "name": "Arheološki lokalitet Burnum", "lat": 44.0185123, "lon": 16.0195678, "type": "historic_site", "city": "Ivosevci" },
  { "name": "Bribirska glavica", "lat": 43.9165123, "lon": 15.8452123, "type": "historic_site", "city": "Bribir" },
  { "name": "Vela Spila", "lat": 42.9642123, "lon": 16.7185678, "type": "historic_site", "city": "Vela Luka" },
  { "name": "Povijesni centar Motovuna", "lat": 45.3365123, "lon": 13.8285678, "type": "historic_site", "city": "Motovun" },
  { "name": "Gradske zidine Korčule", "lat": 42.9615123, "lon": 17.1352567, "type": "historic_site", "city": "Korcula" },
  { "name": "Rimski vojni logor Tilurium", "lat": 43.6185123, "lon": 16.7324567, "type": "historic_site", "city": "Gardun" },
  { "name": "Antička Narona", "lat": 43.0815123, "lon": 17.6275678, "type": "historic_site", "city": "Vid" },
  { "name": "Ninske gradske zidine", "lat": 44.2432123, "lon": 15.1845678, "type": "historic_site", "city": "Nin" },
  { "name": "Donja vrata (Nin)", "lat": 44.2421567, "lon": 15.1841234, "type": "historic_site", "city": "Nin" },
  { "name": "Gornja vrata (Nin)", "lat": 44.2444123, "lon": 15.1852567, "type": "historic_site", "city": "Nin" },
  { "name": "Mali Ston - zidine", "lat": 42.8485123, "lon": 17.7025678, "type": "historic_site", "city": "Mali Ston" },
  { "name": "Dioklecijanov akvedukt", "lat": 43.5215123, "lon": 16.4864567, "type": "historic_site", "city": "Split" },
  { "name": "Mletačke zidine u Zadru", "lat": 44.1152123, "lon": 15.2295678, "type": "historic_site", "city": "Zadar" },
  { "name": "Kopnena vrata (Zadar)", "lat": 44.1128123, "lon": 15.2298567, "type": "historic_site", "city": "Zadar" },
  { "name": "Vrata sv. Krševana (Zadar)", "lat": 44.1171123, "lon": 15.2255678, "type": "historic_site", "city": "Zadar" },
  { "name": "Asseria", "lat": 44.0124123, "lon": 15.6785678, "type": "historic_site", "city": "Podgrade" },
  { "name": "Varvaria", "lat": 43.9168123, "lon": 15.8445678, "type": "historic_site", "city": "Bribir" },
  { "name": "Arheološki park Vižula", "lat": 44.8215123, "lon": 13.9242567, "type": "historic_site", "city": "Medulin" },
  { "name": "Herkulova vrata", "lat": 44.8705123, "lon": 13.8485678, "type": "historic_site", "city": "Pula" },
  { "name": "Dvojna vrata", "lat": 44.8708123, "lon": 13.8489567, "type": "historic_site", "city": "Pula" },
  { "name": "Malo rimsko kazalište", "lat": 44.8698123, "lon": 13.8474567, "type": "historic_site", "city": "Pula" },
  { "name": "Rimski mozaik 'Kažnjavanje Dirke'", "lat": 44.8685123, "lon": 13.8425678, "type": "historic_site", "city": "Pula" },
  { "name": "Aenona - antički Nin", "lat": 44.2434123, "lon": 15.1848567, "type": "historic_site", "city": "Nin" },
  { "name": "Iader - antički Zadar", "lat": 44.1162123, "lon": 15.2241567, "type": "historic_site", "city": "Zadar" },
  { "name": "Curicum - antički Krk", "lat": 45.0258123, "lon": 14.5752567, "type": "historic_site", "city": "Krk" },
  { "name": "Gradske zidine Krka", "lat": 45.0265123, "lon": 14.5765678, "type": "historic_site", "city": "Krk" },
  { "name": "Arheološki lokalitet Cista Velika", "lat": 43.5124123, "lon": 16.8852567, "type": "historic_site", "city": "Cista Provo" },
  { "name": "Nekropola stećaka Dubravka", "lat": 42.5312345, "lon": 18.4145678, "type": "historic_site", "city": "Konavle" },
  { "name": "Fortifikacijski sustav Osijeka (Tvrđa)", "lat": 45.5608123, "lon": 18.6965432, "type": "historic_site", "city": "Osijek" },
  { "name": "Velika Onofrijeva česma", "lat": 42.6413123, "lon": 18.1072567, "type": "historic_site", "city": "Dubrovnik" },
  { "name": "Mala Onofrijeva česma", "lat": 42.6411567, "lon": 18.1106123, "type": "historic_site", "city": "Dubrovnik" },
  { "name": "Knežev dvor", "lat": 42.6402567, "lon": 18.1105678, "type": "historic_site", "city": "Dubrovnik" },
  { "name": "Palača Sponza", "lat": 42.6411234, "lon": 18.1104567, "type": "historic_site", "city": "Dubrovnik" },
  { "name": "Stradun (Placa)", "lat": 42.6412567, "lon": 18.1092345, "type": "historic_site", "city": "Dubrovnik" },
  { "name": "Luža - zvonik", "lat": 42.6412123, "lon": 18.1106567, "type": "historic_site", "city": "Dubrovnik" },
  { "name": "Gradska loža Trogir", "lat": 43.5168123, "lon": 16.2514567, "type": "historic_site", "city": "Trogir" },
  { "name": "Palača Cipiko", "lat": 43.5171234, "lon": 16.2511567, "type": "historic_site", "city": "Trogir" },
  { "name": "Kula sv. Nikole (Dubrovnik)", "lat": 42.6395123, "lon": 18.1128567, "type": "historic_site", "city": "Dubrovnik" },
  { "name": "Kula Mulo", "lat": 42.6392567, "lon": 18.1124123, "type": "historic_site", "city": "Dubrovnik" },
  { "name": "Benediktinski samostan sv. Marije", "lat": 44.1158567, "lon": 15.2255123, "type": "historic_site", "city": "Zadar" },
  { "name": "Palača Milesi", "lat": 43.5076123, "lon": 16.4385678, "type": "historic_site", "city": "Split" },
  { "name": "Palača Papalić", "lat": 43.5092345, "lon": 16.4402123, "type": "historic_site", "city": "Split" },
  { "name": "Staro groblje Boninovo", "lat": 42.6452123, "lon": 18.0945678, "type": "historic_site", "city": "Dubrovnik" },
  { "name": "Povijesna jezgra Grožnjana", "lat": 45.3782345, "lon": 13.7224567, "type": "historic_site", "city": "Groznjan" },
  { "name": "Povijesna jezgra Hvara", "lat": 43.1725123, "lon": 16.4421567, "type": "historic_site", "city": "Hvar" },
  { "name": "Hvarsko kazalište (Arsenal)", "lat": 43.1715678, "lon": 16.4411234, "type": "historic_site", "city": "Hvar" },
  { "name": "Mletački kaštel u Splitu", "lat": 43.5075678, "lon": 16.4384123, "type": "historic_site", "city": "Split" },
  { "name": "Gradska vrata Labin", "lat": 45.0935123, "lon": 14.1235678, "type": "historic_site", "city": "Labin" },
  { "name": "Rimski kameni most u Kosinju", "lat": 44.7335678, "lon": 15.2815123, "type": "historic_site", "city": "Kosinj" },
  { "name": "Arheološki park Ščitarjevo", "lat": 45.7668123, "lon": 16.1162567, "type": "historic_site", "city": "Velika Gorica" },
  { "name": "Staro kršćanska bazilika u Zavali", "lat": 43.1245678, "lon": 16.7112345, "type": "historic_site", "city": "Hvar" },
  { "name": "Ljetnikovac Petra Hektorovića (Tvrdalj)", "lat": 43.1845123, "lon": 16.5964567, "type": "historic_site", "city": "Stari Grad" },
  { "name": "Palača Biankini", "lat": 43.1848567, "lon": 16.5958123, "type": "historic_site", "city": "Stari Grad" },
  { "name": "Dominikanski samostan sv. Petra Mučenika", "lat": 43.1852345, "lon": 16.6012567, "type": "historic_site", "city": "Stari Grad" },
  { "name": "Arheološki lokalitet Remetinec", "lat": 46.2512345, "lon": 16.3545678, "type": "historic_site", "city": "Novi Marof" },
  { "name": "Starohrvatska bazilika sv. Spasa", "lat": 43.9515678, "lon": 16.4312345, "type": "historic_site", "city": "Vrlika" },
  { "name": "Rimski bedemi u Senju", "lat": 44.9895123, "lon": 14.9045678, "type": "historic_site", "city": "Senj" },
  { "name": "Velika vrata (Senj)", "lat": 44.9902345, "lon": 14.9051234, "type": "historic_site", "city": "Senj" },
  { "name": "Benediktinski samostan sv. Ivana Evanđelista", "lat": 44.7565123, "lon": 14.7612345, "type": "historic_site", "city": "Rab" },
  { "name": "Knežev dvor u Rabu", "lat": 44.7552567, "lon": 14.7605123, "type": "historic_site", "city": "Rab" },
  { "name": "Arheološki lokalitet Epidaurum", "lat": 42.5805123, "lon": 18.2175678, "type": "historic_site", "city": "Cavtat" },
  { "name": "Arheološki lokalitet Gromače", "lat": 44.9125678, "lon": 13.7654123, "type": "historic_site", "city": "Brijuni" },
  { "name": "Bizantski kastrum na Brijunima", "lat": 44.9142345, "lon": 13.7552567, "type": "historic_site", "city": "Brijuni" },
  { "name": "Rimska vila u uvali Verige", "lat": 44.9165123, "lon": 13.7685678, "type": "historic_site", "city": "Brijuni" },
  { "name": "Arheološko nalazište Gradina", "lat": 44.9185678, "lon": 13.7612345, "type": "historic_site", "city": "Brijuni" },
  { "name": "Staro kršćanska bazilika sv. Marije", "lat": 44.9155123, "lon": 13.7542567, "type": "historic_site", "city": "Brijuni" },
  { "name": "Povijesna jezgra Mošćenica", "lat": 45.2285678, "lon": 14.2485123, "type": "historic_site", "city": "Moscenice" },
  { "name": "Ljetnikovac Bunić-Kaboga", "lat": 42.6635123, "lon": 18.0824567, "type": "historic_site", "city": "Dubrovnik" },
  { "name": "Ljetnikovac Sorkočević", "lat": 42.6595678, "lon": 18.0852123, "type": "historic_site", "city": "Dubrovnik" },
  { "name": "Palača Skočibuha", "lat": 42.6405678, "lon": 18.1098123, "type": "historic_site", "city": "Dubrovnik" },
  { "name": "Arheološki lokalitet Mirine-Fulfinum", "lat": 45.2152345, "lon": 14.5485678, "type": "historic_site", "city": "Omisalj" },
  { "name": "Ranokršćanski kompleks u uvali Sepen", "lat": 45.2165678, "lon": 14.5492123, "type": "historic_site", "city": "Omisalj" },
  { "name": "Antička Issa", "lat": 43.0645123, "lon": 16.1852567, "type": "historic_site", "city": "Vis" },
  { "name": "Rimski termi u Visu", "lat": 43.0652345, "lon": 16.1864123, "type": "historic_site", "city": "Vis" },
  { "name": "Grčka nekropola Martvilo", "lat": 43.0635678, "lon": 16.1825123, "type": "historic_site", "city": "Vis" },
  { "name": "Arheološki lokalitet Colentum", "lat": 43.8245123, "lon": 15.5852567, "type": "historic_site", "city": "Murter" },
  { "name": "Povijesna jezgra Oprtlja", "lat": 45.3812345, "lon": 13.8245678, "type": "historic_site", "city": "Oprtalj" },
  { "name": "Spomenik banu Josipu Jelačiću", "lat": 45.8130234, "lon": 15.9772789, "type": "statue", "city": "Zagreb" },
  { "name": "Kralj Tomislav", "lat": 45.8052123, "lon": 15.9788912, "type": "statue", "city": "Zagreb" },
  { "name": "Grgur Ninski (Split)", "lat": 43.5097456, "lon": 16.4403123, "type": "statue", "city": "Split" },
  { "name": "Orlandov stup", "lat": 42.6410123, "lon": 18.1106567, "type": "statue", "city": "Dubrovnik" },
  { "name": "Zdenac života", "lat": 45.8101234, "lon": 15.9701567, "type": "statue", "city": "Zagreb" },
  { "name": "Povijest Hrvata", "lat": 45.8114567, "lon": 15.9781234, "type": "statue", "city": "Zagreb" },
  { "name": "Spomenik Nikoli Tesli", "lat": 45.8124123, "lon": 15.9760123, "type": "statue", "city": "Zagreb" },
  { "name": "Sveti Juraj ubija zmaja", "lat": 45.8151234, "lon": 15.9754567, "type": "statue", "city": "Zagreb" },
  { "name": "Marko Marulić", "lat": 43.5074567, "lon": 16.4384123, "type": "statue", "city": "Split" },
  { "name": "Juraj Dalmatinac", "lat": 43.7354123, "lon": 15.8894567, "type": "statue", "city": "Sibenik" },
  { "name": "Dražen Petrović", "lat": 43.7314567, "lon": 15.8952123, "type": "statue", "city": "Sibenik" },
  { "name": "Grgur Ninski (Nin)", "lat": 44.2428123, "lon": 15.1842567, "type": "statue", "city": "Nin" },
  { "name": "Grgur Ninski (Varaždin)", "lat": 46.3075678, "lon": 16.3364123, "type": "statue", "city": "Varazdin" },
  { "name": "Spomenik Mariji Jurić Zagorki", "lat": 45.8141234, "lon": 15.9765678, "type": "statue", "city": "Zagreb" },
  { "name": "A.G. Matoš na klupi", "lat": 45.8152345, "lon": 15.9734123, "type": "statue", "city": "Zagreb" },
  { "name": "Spomenik Augustu Šenoi", "lat": 45.8121234, "lon": 15.9804567, "type": "statue", "city": "Zagreb" },
  { "name": "Petar Preradović", "lat": 45.8124567, "lon": 15.9749123, "type": "statue", "city": "Zagreb" },
  { "name": "Tin Ujević", "lat": 45.8119123, "lon": 15.9685678, "type": "statue", "city": "Zagreb" },
  { "name": "Kumica Barica", "lat": 45.8138123, "lon": 15.9774567, "type": "statue", "city": "Zagreb" },
  { "name": "Prizemljeno sunce", "lat": 45.8115678, "lon": 15.9748123, "type": "statue", "city": "Zagreb" },
  { "name": "Bacač diska", "lat": 45.8159123, "lon": 15.9815678, "type": "statue", "city": "Zagreb" },
  { "name": "Spomenik kralju Krešimiru IV", "lat": 43.7312345, "lon": 15.8925678, "type": "statue", "city": "Sibenik" },
  { "name": "Spomenik pomorcu", "lat": 43.5015678, "lon": 16.4468123, "type": "statue", "city": "Split" },
  { "name": "Djevojka s galebom", "lat": 45.3338123, "lon": 14.3079567, "type": "statue", "city": "Opatija" },
  { "name": "Spomenik Mirku Bogoviću", "lat": 46.3081234, "lon": 16.3385678, "type": "statue", "city": "Varazdin" },
  { "name": "Sfinga u Zadru", "lat": 44.1235678, "lon": 15.2155123, "type": "statue", "city": "Zadar" },
  { "name": "Spomenik Špiri Brusini", "lat": 44.1132345, "lon": 15.2224567, "type": "statue", "city": "Zadar" },
  { "name": "Spomenik Anti Starčeviću", "lat": 45.5595678, "lon": 18.6815123, "type": "statue", "city": "Osijek" },
  { "name": "Spomenik kugi (Kužni pil)", "lat": 45.5608123, "lon": 18.6958567, "type": "statue", "city": "Osijek" },
  { "name": "Spomenik Picassu", "lat": 45.5621234, "lon": 18.6784567, "type": "statue", "city": "Osijek" },
  { "name": "Franjo Tuđman (Zagreb)", "lat": 45.8015678, "lon": 15.9782345, "type": "statue", "city": "Zagreb" },
  { "name": "Franjo Tuđman (Knin)", "lat": 44.0325123, "lon": 16.1921567, "type": "statue", "city": "Knin" },
  { "name": "Kameni cvijet", "lat": 45.2794567, "lon": 16.9288123, "type": "statue", "city": "Jasenovac" },
  { "name": "Galebova krila", "lat": 43.2384123, "lon": 17.0781567, "type": "statue", "city": "Podgora" },
  { "name": "Spomenik revoluciji naroda Moslavine", "lat": 45.6425123, "lon": 16.7654567, "type": "statue", "city": "Podgaric" },
  { "name": "Spomenik pobjedi", "lat": 45.9224567, "lon": 19.1021234, "type": "statue", "city": "Batina" },
  { "name": "Maro i Baro (Zelenci)", "lat": 42.6412345, "lon": 18.1106567, "type": "statue", "city": "Dubrovnik" },
  { "name": "Marin Držić", "lat": 42.6399123, "lon": 18.1104567, "type": "statue", "city": "Dubrovnik" },
  { "name": "Ivan Gundulić", "lat": 42.6402345, "lon": 18.1098123, "type": "statue", "city": "Dubrovnik" },
  { "name": "Sveti Vlaho", "lat": 42.6414123, "lon": 18.1068567, "type": "statue", "city": "Dubrovnik" },
  { "name": "Spomenik palim braniteljima", "lat": 45.3284567, "lon": 14.4442123, "type": "statue", "city": "Rijeka" },
  { "name": "Janko Polić Kamov", "lat": 45.3268123, "lon": 14.4461567, "type": "statue", "city": "Rijeka" },
  { "name": "Spomenik oslobođenju", "lat": 45.3255678, "lon": 14.4532123, "type": "statue", "city": "Rijeka" },
  { "name": "Sveti Vid", "lat": 45.3271234, "lon": 14.4449567, "type": "statue", "city": "Rijeka" },
  { "name": "Spomenik Ivanu Mažuraniću", "lat": 45.1274567, "lon": 14.7915123, "type": "statue", "city": "Novi Vinodolski" },
  { "name": "Frane Petrić", "lat": 44.8565123, "lon": 14.4075678, "type": "statue", "city": "Cres" },
  { "name": "Matija Gubec", "lat": 45.9895123, "lon": 15.9721567, "type": "statue", "city": "Gornja Stubica" },
  { "name": "Spomenik seljačkoj buni", "lat": 45.9892345, "lon": 15.9715678, "type": "statue", "city": "Gornja Stubica" },
  { "name": "Nikola Šubić Zrinski", "lat": 45.8085123, "lon": 15.9785678, "type": "statue", "city": "Zagreb" },
  { "name": "Eugen Kvaternik", "lat": 45.8152345, "lon": 15.9924567, "type": "statue", "city": "Zagreb" },
  { "name": "Većeslav Holjevac", "lat": 45.7895123, "lon": 15.9784567, "type": "statue", "city": "Zagreb" },
  { "name": "Spomenik Nikoli Tesli (Smiljan)", "lat": 44.5595678, "lon": 15.3112345, "type": "statue", "city": "Smiljan" },
  { "name": "Spomenik Ljudevitu Gaju", "lat": 46.1615123, "lon": 15.8742567, "type": "statue", "city": "Krapina" },
  { "name": "Spomenik Anti Starčeviću (Zagreb)", "lat": 45.8065432, "lon": 15.9772123, "type": "statue", "city": "Zagreb" },
  { "name": "Biskup Josip Juraj Strossmayer", "lat": 45.8088123, "lon": 15.9781567, "type": "statue", "city": "Zagreb" },
  { "name": "Fran Krsto Frankopan", "lat": 46.3082345, "lon": 16.3365123, "type": "statue", "city": "Varazdin" },
  { "name": "Petar Zrinski", "lat": 46.3083456, "lon": 16.3366789, "type": "statue", "city": "Varazdin" },
  { "name": "Luka Botić", "lat": 43.5072123, "lon": 16.4391567, "type": "statue", "city": "Split" },
  { "name": "Emanuel Vidović", "lat": 43.5065432, "lon": 16.4412345, "type": "statue", "city": "Split" },
  { "name": "Spomenik rudaru", "lat": 45.0932123, "lon": 14.1238901, "type": "statue", "city": "Labin" },
  { "name": "Matija Vlačić Ilirik", "lat": 45.0935678, "lon": 14.1242345, "type": "statue", "city": "Labin" },
  { "name": "Vjekoslav Karas", "lat": 45.4924567, "lon": 15.5542123, "type": "statue", "city": "Karlovac" },
  { "name": "Spomenik žrtvama fašizma", "lat": 45.4952345, "lon": 15.5515678, "type": "statue", "city": "Karlovac" },
  { "name": "Spomenik oslobođenju Knina", "lat": 44.0385678, "lon": 16.1952123, "type": "statue", "city": "Knin" },
  { "name": "Spomenik hrvatskoj pobjedi Oluja 95", "lat": 44.0345678, "lon": 16.1965123, "type": "statue", "city": "Knin" },
  { "name": "Spomenik zahvalnosti", "lat": 43.7335123, "lon": 15.8912345, "type": "statue", "city": "Sibenik" },
  { "name": "Dražen Petrović (Zagreb)", "lat": 45.8038901, "lon": 15.9615678, "type": "statue", "city": "Zagreb" },
  { "name": "Spomenik Stjepanu Radiću", "lat": 45.8115234, "lon": 15.9775123, "type": "statue", "city": "Zagreb" },
  { "name": "Tin Ujević (Imotski)", "lat": 43.4475123, "lon": 17.2135678, "type": "statue", "city": "Imotski" },
  { "name": "Spomenik Hasanaginici", "lat": 43.4482345, "lon": 17.2115678, "type": "statue", "city": "Imotski" },
  { "name": "Frane Bulić", "lat": 43.5392123, "lon": 16.4842567, "type": "statue", "city": "Solin" },
  { "name": "Don Frane Bulić (Zagreb)", "lat": 45.8115678, "lon": 15.9774123, "type": "statue", "city": "Zagreb" },
  { "name": "Spomenik Nikoli Subiću Zrinskom (Siget)", "lat": 46.3842123, "lon": 16.4338567, "type": "statue", "city": "Cakovec" },
  { "name": "Spomenik borcima NOB", "lat": 44.1135678, "lon": 15.2285123, "type": "statue", "city": "Zadar" },
  { "name": "Petar Zoranić", "lat": 44.1128123, "lon": 15.2292345, "type": "statue", "city": "Zadar" },
  { "name": "Vladimir Nazor", "lat": 45.8192345, "lon": 15.9625678, "type": "statue", "city": "Zagreb" },
  { "name": "Spomenik Nikoli Tesli (Gospic)", "lat": 44.5465123, "lon": 15.3751234, "type": "statue", "city": "Gospic" },
  { "name": "Miroslav Krleža", "lat": 45.8174567, "lon": 15.9675123, "type": "statue", "city": "Zagreb" },
  { "name": "Andrija Kačić Miošić", "lat": 45.8129123, "lon": 15.9688567, "type": "statue", "city": "Zagreb" },
  { "name": "Fra Andrija Kačić Miošić (Makarska)", "lat": 43.2941234, "lon": 17.0205678, "type": "statue", "city": "Makarska" },
  { "name": "Spomenik palim borcima", "lat": 42.9615123, "lon": 17.1362345, "type": "statue", "city": "Korcula" },
  { "name": "Marco Polo", "lat": 42.9612345, "lon": 17.1355678, "type": "statue", "city": "Korcula" },
  { "name": "Spomenik hrvatskom domobranu", "lat": 45.5602345, "lon": 18.6755123, "type": "statue", "city": "Osijek" },
  { "name": "August Cesarec", "lat": 45.5585678, "lon": 18.6821234, "type": "statue", "city": "Osijek" },
  { "name": "Spomenik palim tenkistima", "lat": 45.5512345, "lon": 18.6942123, "type": "statue", "city": "Osijek" },
  { "name": "Spomenik žrtvama fašizma (Dotrščina)", "lat": 45.8452123, "lon": 16.0152567, "type": "statue", "city": "Zagreb" },
  { "name": "Spomenik strijeljanima (Rade Končar)", "lat": 43.7252345, "lon": 15.9015678, "type": "statue", "city": "Sibenik" },
  { "name": "Spomenik Nikoli Tesli (Poreč)", "lat": 45.2285123, "lon": 13.5942345, "type": "statue", "city": "Porec" },
  { "name": "Mate Parlov", "lat": 44.8615678, "lon": 13.8452123, "type": "statue", "city": "Pula" },
  { "name": "James Joyce", "lat": 44.8682123, "lon": 13.8478567, "type": "statue", "city": "Pula" },
  { "name": "Spomenik hrvatskoj himni", "lat": 46.0385123, "lon": 15.7062345, "type": "statue", "city": "Zelenjak" },
  { "name": "Spomenik braći Radić", "lat": 45.4842123, "lon": 16.3745678, "type": "statue", "city": "Sisak" },
  { "name": "Spomenik pobjedi (Kutina)", "lat": 45.4812345, "lon": 16.7812567, "type": "statue", "city": "Kutina" },
  { "name": "Ruđer Bošković", "lat": 45.8185123, "lon": 15.9795678, "type": "statue", "city": "Zagreb" },
  { "name": "Nikola Šubić Zrinski (Zrinjevac)", "lat": 45.8095678, "lon": 15.9785123, "type": "statue", "city": "Zagreb" },
  { "name": "Spomenik palim borcima (Vukovar)", "lat": 45.3525678, "lon": 19.0045123, "type": "statue", "city": "Vukovar" },
  { "name": "Jean-Michel Nicolier", "lat": 45.3518123, "lon": 19.0051234, "type": "statue", "city": "Vukovar" },
  { "name": "Križ na ušću Vuke u Dunav", "lat": 45.3528123, "lon": 19.0065678, "type": "statue", "city": "Vukovar" },
  { "name": "Spomenik djetetu", "lat": 45.8122345, "lon": 15.9745123, "type": "statue", "city": "Zagreb" },
  { "name": "Papa Ivan Pavao II", "lat": 45.3318123, "lon": 14.4571234, "type": "statue", "city": "Rijeka" }
]