[  
  { "name": "Zagrebačka katedrala", "lat": 45.8144, "lon": 15.9780, "type": "church", "city": "Zagreb" },
  { "name": "Crkva sv. Marka", "lat": 45.8163, "lon": 15.9739, "type": "church", "city": "Zagreb" },
  { "name": "Katedrala sv. Jakova", "lat": 43.7356, "lon": 15.8891, "type": "church", "city": "Sibenik" },
  { "name": "Eufrazijeva bazilika", "lat": 45.2285, "lon": 13.5937, "type": "church", "city": "Porec" },
  { "name": "Katedrala sv. Dujma", "lat": 43.5084, "lon": 16.4402, "type": "church", "city": "Split" },
  { "name": "Crkva sv. Donata", "lat": 44.1160, "lon": 15.2245, "type": "church", "city": "Zadar" },
  { "name": "Katedrala sv. Stošije", "lat": 44.1163, "lon": 15.2242, "type": "church", "city": "Zadar" },
  { "name": "Katedrala sv. Lovre", "lat": 43.5172, "lon": 16.2514, "type": "church", "city": "Trogir" },
  { "name": "Đakovačka katedrala", "lat": 45.3117, "lon": 18.4101, "type": "church", "city": "Dakovo" },
  { "name": "Crkva sv. Vlaha", "lat": 42.6407, "lon": 18.1106, "type": "church", "city": "Dubrovnik" },
  { "name": "Dubrovačka katedrala", "lat": 42.6398, "lon": 18.1105, "type": "church", "city": "Dubrovnik" },
  { "name": "Crkva sv. Eufemije", "lat": 45.0841, "lon": 13.6302, "type": "church", "city": "Rovinj" },
  { "name": "Katedrala sv. Vida", "lat": 45.3269, "lon": 14.4448, "type": "church", "city": "Rijeka" },
  { "name": "Konkatedrala sv. Petra i Pavla", "lat": 45.5606, "lon": 18.6766, "type": "church", "city": "Osijek" },
  { "name": "Crkva sv. Katarine", "lat": 45.8150, "lon": 15.9748, "type": "church", "city": "Zagreb" },
  { "name": "Crkva sv. Marije", "lat": 44.1157, "lon": 15.2256, "type": "church", "city": "Zadar" },
  { "name": "Hvarska katedrala", "lat": 43.1719, "lon": 16.4422, "type": "church", "city": "Hvar" },
  { "name": "Korčulanska katedrala", "lat": 42.9616, "lon": 17.1359, "type": "church", "city": "Korcula" },
  { "name": "Sisačka katedrala", "lat": 45.4851, "lon": 16.3742, "type": "church", "city": "Sisak" },
  { "name": "Crkva sv. Križa", "lat": 44.2435, "lon": 15.1837, "type": "church", "city": "Nin" },
  { "name": "Crkva sv. Krševana", "lat": 44.1169, "lon": 15.2258, "type": "church", "city": "Zadar" },
  { "name": "Gospićka katedrala", "lat": 44.5394, "lon": 15.3747, "type": "church", "city": "Gospic" },
  { "name": "Varaždinska katedrala", "lat": 46.3075, "lon": 16.3377, "type": "church", "city": "Varazdin" },
  { "name": "Crkva sv. Nikole", "lat": 46.1622, "lon": 16.8322, "type": "church", "city": "Koprivnica" },
  { "name": "Bjelovarska katedrala", "lat": 45.8988, "lon": 16.8422, "type": "church", "city": "Bjelovar" },
  { "name": "Požeška katedrala", "lat": 45.3328, "lon": 17.6756, "type": "church", "city": "Pozega" },
  { "name": "Crkva sv. Petra", "lat": 43.5049, "lon": 16.4478, "type": "church", "city": "Split" },
  { "name": "Svetište Majke Božje Trsatske", "lat": 45.3315, "lon": 14.4578, "type": "church", "city": "Rijeka" },
  { "name": "Crkva sv. Blaža", "lat": 45.8136, "lon": 15.9649, "type": "church", "city": "Zagreb" },
  { "name": "Crkva sv. Ignacija", "lat": 42.6391, "lon": 18.1098, "type": "church", "city": "Dubrovnik" },
  { "name": "Dominikanska crkva", "lat": 42.6415, "lon": 18.1118, "type": "church", "city": "Dubrovnik" },
  { "name": "Crkva Gospe od Snijega", "lat": 42.5815, "lon": 18.2195, "type": "church", "city": "Cavtat" },
  { "name": "Crkva sv. Frane", "lat": 43.5081, "lon": 16.4352, "type": "church", "city": "Split" },
  { "name": "Crkva sv. Franje", "lat": 44.1139, "lon": 15.2235, "type": "church", "city": "Zadar" },
  { "name": "Crkva sv. Šime", "lat": 44.1125, "lon": 15.2291, "type": "church", "city": "Zadar" },
  { "name": "Crkva sv. Mihaela", "lat": 45.5604, "lon": 18.6953, "type": "church", "city": "Osijek" },
  { "name": "Crkva sv. Filipa i Jakova", "lat": 45.3508, "lon": 19.0069, "type": "church", "city": "Vukovar" },
  { "name": "Crkva Presvetog Trojstva", "lat": 45.4871, "lon": 15.5552, "type": "church", "city": "Karlovac" },
  { "name": "Bazilika Srca Isusova", "lat": 45.8105, "lon": 15.9818, "type": "church", "city": "Zagreb" },
  { "name": "Crkva sv. Antuna Padovanskog", "lat": 45.8164, "lon": 15.9419, "type": "church", "city": "Zagreb" },
  { "name": "Crkva sv. Kvirina", "lat": 45.4955, "lon": 16.3711, "type": "church", "city": "Sisak" },
  { "name": "Križevačka katedrala", "lat": 46.0298, "lon": 16.5419, "type": "church", "city": "Krizevci" },
  { "name": "Crkva sv. Marije", "lat": 45.0744, "lon": 13.8475, "type": "church", "city": "Bale" },
  { "name": "Crkva sv. Pelagija", "lat": 45.3148, "lon": 13.5601, "type": "church", "city": "Novigrad" },
  { "name": "Crkva sv. Marije Snježne", "lat": 46.1098, "lon": 16.1264, "type": "church", "city": "Belec" },
  { "name": "Crkva sv. Nikole", "lat": 46.3844, "lon": 16.4335, "type": "church", "city": "Cakovec" },
  { "name": "Crkva sv. Marije Jeruzalemske", "lat": 46.1664, "lon": 15.8895, "type": "church", "city": "Krapina" },
  { "name": "Crkva sv. Mihovila", "lat": 43.7341, "lon": 15.8942, "type": "church", "city": "Sibenik" },
  { "name": "Franjevački samostan i crkva", "lat": 42.6414, "lon": 18.1074, "type": "church", "city": "Dubrovnik" },
  { "name": "Crkva sv. Lucije", "lat": 44.9815, "lon": 14.7431, "type": "church", "city": "Baska" },
  { "name": "Crkva sv. Barbare", "lat": 43.7351, "lon": 15.8912, "type": "church", "city": "Sibenik" },
  { "name": "Crkva Navještenja Marijina", "lat": 45.3312, "lon": 14.3023, "type": "church", "city": "Opatija" },
  { "name": "Crkva sv. Jakova", "lat": 45.3341, "lon": 14.3078, "type": "church", "city": "Opatija" },
  { "name": "Crkva Gospe od Prizidnice", "lat": 43.4839, "lon": 16.3644, "type": "church", "city": "Ciovo" },
  { "name": "Crkva sv. Anselma", "lat": 44.2429, "lon": 15.1843, "type": "church", "city": "Nin" },
  { "name": "Crkva sv. Martina", "lat": 43.5095, "lon": 16.4401, "type": "church", "city": "Split" },
  { "name": "Crkva sv. Spasa", "lat": 42.6413, "lon": 18.1071, "type": "church", "city": "Dubrovnik" },
  { "name": "Katedrala sv. Marka", "lat": 43.2938, "lon": 17.0201, "type": "church", "city": "Makarska" },
  { "name": "Crkva Gospe od Zdravlja", "lat": 44.1174, "lon": 15.2219, "type": "church", "city": "Zadar" },
  { "name": "Crkva sv. Ivana", "lat": 43.5170, "lon": 16.2504, "type": "church", "city": "Trogir" },
  { "name": "Crkva Gospe od Poljuda", "lat": 43.5208, "lon": 16.4314, "type": "church", "city": "Split" },
  { "name": "Crkva sv. Dominika", "lat": 43.5165, "lon": 16.2528, "type": "church", "city": "Trogir" },
  { "name": "Krčka katedrala", "lat": 45.0261, "lon": 14.5755, "type": "church", "city": "Krk" },
  { "name": "Rabska katedrala", "lat": 44.7548, "lon": 14.7602, "type": "church", "city": "Rab" },
  { "name": "Crkva sv. Justine", "lat": 44.7562, "lon": 14.7608, "type": "church", "city": "Rab" },
  { "name": "Crkva sv. Marije na Dančama", "lat": 42.6405, "lon": 18.1009, "type": "church", "city": "Dubrovnik" },
  { "name": "Crkva sv. Roka", "lat": 42.6401, "lon": 18.1091, "type": "church", "city": "Dubrovnik" },
  { "name": "Svetište Gospe Sinjske", "lat": 43.7031, "lon": 16.6369, "type": "church", "city": "Sinj" },
  { "name": "Crkva sv. Ksavera", "lat": 45.8365, "lon": 15.9751, "type": "church", "city": "Zagreb" },
  { "name": "Crkva sv. Josipa", "lat": 45.8041, "lon": 15.9575, "type": "church", "city": "Zagreb" },
  { "name": "Crkva sv. Petra", "lat": 45.8142, "lon": 15.9912, "type": "church", "city": "Zagreb" },
  { "name": "Crkva sv. Antuna Padovanskog", "lat": 45.6144, "lon": 18.0931, "type": "church", "city": "Nasice" },
  { "name": "Crkva sv. Roka", "lat": 45.8317, "lon": 17.3855, "type": "church", "city": "Virovitica" },
  { "name": "Crkva sv. Lovre", "lat": 45.3345, "lon": 17.6782, "type": "church", "city": "Pozega" },
  { "name": "Crkva sv. Petra i Pavla", "lat": 45.4828, "lon": 16.7811, "type": "church", "city": "Kutina" },
  { "name": "Crkva sv. Anastazije", "lat": 45.8016, "lon": 15.7119, "type": "church", "city": "Samobor" },
  { "name": "Crkva Uznesenja Blažene Djevice Marije", "lat": 44.4449, "lon": 15.0568, "type": "church", "city": "Pag" },
  { "name": "Crkva sv. Jurja", "lat": 43.5878, "lon": 15.9234, "type": "church", "city": "Primosten" },
  { "name": "Crkva sv. Jeronima", "lat": 43.5065, "lon": 16.4069, "type": "church", "city": "Split" },
  { "name": "Crkva sv. Martina", "lat": 45.1492, "lon": 13.6025, "type": "church", "city": "Vrsar" },
  { "name": "Crkva sv. Marije od Milosti", "lat": 43.1738, "lon": 16.4485, "type": "church", "city": "Hvar" },
  { "name": "Crkva Gospe od Špinuta", "lat": 43.5152, "lon": 16.4255, "type": "church", "city": "Split" },
  { "name": "Crkva sv. Nikole", "lat": 45.2392, "lon": 13.9381, "type": "church", "city": "Pazin" },
  { "name": "Crkva Marije Pomoćnice", "lat": 45.3288, "lon": 14.4344, "type": "church", "city": "Rijeka" },
  { "name": "Crkva sv. Nikole Putnika", "lat": 43.5098, "lon": 16.4211, "type": "church", "city": "Split" },
  { "name": "Crkva sv. Duha", "lat": 42.6411, "lon": 18.1085, "type": "church", "city": "Dubrovnik" },
  { "name": "Crkva sv. Andrije", "lat": 42.6395, "lon": 18.1064, "type": "church", "city": "Dubrovnik" },
  { "name": "Crkva sv. Nediljice", "lat": 44.1132, "lon": 15.2281, "type": "church", "city": "Zadar" },
  { "name": "Crkva Gospe Loretske", "lat": 44.1039, "lon": 15.2442, "type": "church", "city": "Zadar" },
  { "name": "Crkva sv. Franje", "lat": 43.4431, "lon": 17.2185, "type": "church", "city": "Imotski" },
  { "name": "Crkva sv. Ilije", "lat": 43.0544, "lon": 17.6502, "type": "church", "city": "Metkovic" },
  { "name": "Crkva sv. Antuna Padovanskog", "lat": 44.0355, "lon": 16.1956, "type": "church", "city": "Knin" },
  { "name": "Crkva sv. Marije Kraljice Mira", "lat": 45.4741, "lon": 16.3865, "type": "church", "city": "Sisak" },
  { "name": "Crkva sv. Nikole", "lat": 45.6711, "lon": 15.6485, "type": "church", "city": "Jastrebarsko" },
  { "name": "Crkva sv. Vida", "lat": 45.6148, "lon": 15.4789, "type": "church", "city": "Ozalj" },
  { "name": "Crkva sv. Leonarda", "lat": 45.7831, "lon": 15.6558, "type": "church", "city": "Kotari" },
  { "name": "Crkva sv. Marije Snježne", "lat": 45.4952, "lon": 15.5581, "type": "church", "city": "Karlovac" },
  { "name": "Crkva sv. Jurja", "lat": 45.3045, "lon": 14.3978, "type": "church", "city": "Lovran" },
  { "name": "Crkva sv. Ivana Krstitelja", "lat": 45.9592, "lon": 16.2425, "type": "church", "city": "Sveti Ivan Zelina" },
  { "name": "Crkva sv. Barbare", "lat": 45.7335, "lon": 16.0331, "type": "church", "city": "Velika Mlaka" },
  { "name": "Muzej prekinutih veza", "lat": 45.8151, "lon": 15.9735, "type": "museum", "city": "Zagreb" },
  { "name": "Muzej suvremene umjetnosti", "lat": 45.7770, "lon": 15.9818, "type": "museum", "city": "Zagreb" },
  { "name": "Arheološki muzej u Zagrebu", "lat": 45.8113, "lon": 15.9774, "type": "museum", "city": "Zagreb" },
  { "name": "Muzej Mimara", "lat": 45.8094, "lon": 15.9701, "type": "museum", "city": "Zagreb" },
  { "name": "Muzej za umjetnost i obrt", "lat": 45.8105, "lon": 15.9696, "type": "museum", "city": "Zagreb" },
  { "name": "Tehnički muzej Nikola Tesla", "lat": 45.8039, "lon": 15.9680, "type": "museum", "city": "Zagreb" },
  { "name": "Etnografski muzej", "lat": 45.8100, "lon": 15.9723, "type": "museum", "city": "Zagreb" },
  { "name": "Muzej grada Zagreba", "lat": 45.8180, "lon": 15.9744, "type": "museum", "city": "Zagreb" },
  { "name": "Hrvatski muzej naivne umjetnosti", "lat": 45.8152, "lon": 15.9732, "type": "museum", "city": "Zagreb" },
  { "name": "Hrvatski povijesni muzej", "lat": 45.8166, "lon": 15.9741, "type": "museum", "city": "Zagreb" },
  { "name": "Hrvatski prirodoslovni muzej", "lat": 45.8173, "lon": 15.9745, "type": "museum", "city": "Zagreb" },
  { "name": "Tiflološki muzej", "lat": 45.8102, "lon": 15.9815, "type": "museum", "city": "Zagreb" },
  { "name": "Muzej iluzija", "lat": 45.8129, "lon": 15.9698, "type": "museum", "city": "Zagreb" },
  { "name": "Muzej čokolade Zagreb", "lat": 45.8118, "lon": 15.9738, "type": "museum", "city": "Zagreb" },
  { "name": "Muzej automobila Ferdinand Budicki", "lat": 45.8194, "lon": 15.9912, "type": "museum", "city": "Zagreb" },
  { "name": "Zagreb 80-ih muzej", "lat": 45.8145, "lon": 15.9751, "type": "museum", "city": "Zagreb" },
  { "name": "Muzej policije", "lat": 45.8169, "lon": 15.9234, "type": "museum", "city": "Zagreb" },
  { "name": "Hrvatski školski muzej", "lat": 45.8103, "lon": 15.9705, "type": "museum", "city": "Zagreb" },
  { "name": "Lovački muzej", "lat": 45.8236, "lon": 15.9701, "type": "museum", "city": "Zagreb" },
  { "name": "Muzej mamurluka", "lat": 45.8112, "lon": 15.9798, "type": "museum", "city": "Zagreb" },
  { "name": "Arheološki muzej u Splitu", "lat": 43.5147, "lon": 16.4357, "type": "museum", "city": "Split" },
  { "name": "Muzej grada Splita", "lat": 43.5091, "lon": 16.4404, "type": "museum", "city": "Split" },
  { "name": "Muzej hrvatskih arheoloških spomenika", "lat": 43.5113, "lon": 16.4217, "type": "museum", "city": "Split" },
  { "name": "Hrvatski pomorski muzej Split", "lat": 43.5097, "lon": 16.4468, "type": "museum", "city": "Split" },
  { "name": "Etnografski muzej Split", "lat": 43.5079, "lon": 16.4403, "type": "museum", "city": "Split" },
  { "name": "Prirodoslovni muzej i zoološki vrt", "lat": 43.5094, "lon": 16.4305, "type": "museum", "city": "Split" },
  { "name": "Riznica splitske katedrale", "lat": 43.5085, "lon": 16.4403, "type": "museum", "city": "Split" },
  { "name": "Muzej Domovinskog rata u Splitu", "lat": 43.5118, "lon": 16.4485, "type": "museum", "city": "Split" },
  { "name": "Froggyland", "lat": 43.5101, "lon": 16.4389, "type": "museum", "city": "Split" },
  { "name": "Arheološki muzej Zadar", "lat": 44.1158, "lon": 15.2248, "type": "museum", "city": "Zadar" },
  { "name": "Muzej antičkog stakla", "lat": 44.1136, "lon": 15.2299, "type": "museum", "city": "Zadar" },
  { "name": "Narodni muzej Zadar", "lat": 44.1150, "lon": 15.2268, "type": "museum", "city": "Zadar" },
  { "name": "Muzej iluzija Zadar", "lat": 44.1129, "lon": 15.2295, "type": "museum", "city": "Zadar" },
  { "name": "Arheološki muzej Istre", "lat": 44.8694, "lon": 13.8475, "type": "museum", "city": "Pula" },
  { "name": "Povijesni i pomorski muzej Istre", "lat": 44.8705, "lon": 13.8451, "type": "museum", "city": "Pula" },
  { "name": "Muzej suvremene umjetnosti Istre", "lat": 44.8718, "lon": 13.8465, "type": "museum", "city": "Pula" },
  { "name": "MEMO muzej Pula", "lat": 44.8702, "lon": 13.8488, "type": "museum", "city": "Pula" },
  { "name": "Pomorski i povijesni muzej Hrvatskog primorja", "lat": 45.3304, "lon": 14.4429, "type": "museum", "city": "Rijeka" },
  { "name": "Muzej grada Rijeke", "lat": 45.3289, "lon": 14.4421, "type": "museum", "city": "Rijeka" },
  { "name": "Prirodoslovni muzej Rijeka", "lat": 45.3312, "lon": 14.4423, "type": "museum", "city": "Rijeka" },
  { "name": "Muzej moderne i suvremene umjetnosti", "lat": 45.3281, "lon": 14.4365, "type": "museum", "city": "Rijeka" },
  { "name": "PEEK&POKE Muzej računala", "lat": 45.3275, "lon": 14.4475, "type": "museum", "city": "Rijeka" },
  { "name": "Muzej Slavonije", "lat": 45.5606, "lon": 18.6961, "type": "museum", "city": "Osijek" },
  { "name": "Arheološki muzej Osijek", "lat": 45.5615, "lon": 18.6948, "type": "museum", "city": "Osijek" },
  { "name": "Kulturno-povijesni muzej", "lat": 42.6402, "lon": 18.1105, "type": "museum", "city": "Dubrovnik" },
  { "name": "Pomorski muzej Dubrovnik", "lat": 42.6397, "lon": 18.1133, "type": "museum", "city": "Dubrovnik" },
  { "name": "Etnografski muzej Rupe", "lat": 42.6392, "lon": 18.1075, "type": "museum", "city": "Dubrovnik" },
  { "name": "Muzej Domovinskog rata Dubrovnik", "lat": 42.6489, "lon": 18.1118, "type": "museum", "city": "Dubrovnik" },
  { "name": "Muzej samostana Male braće", "lat": 42.6415, "lon": 18.1073, "type": "museum", "city": "Dubrovnik" },
  { "name": "War Photo Limited", "lat": 42.6409, "lon": 18.1092, "type": "museum", "city": "Dubrovnik" },
  { "name": "Gradski muzej Varaždin", "lat": 46.3089, "lon": 16.3345, "type": "museum", "city": "Varazdin" },
  { "name": "Muzej krapinskih neandertalaca", "lat": 46.1643, "lon": 15.8647, "type": "museum", "city": "Krapina" },
  { "name": "Muzej vučedolske kulture", "lat": 45.3344, "lon": 19.0601, "type": "museum", "city": "Vukovar" },
  { "name": "Gradski muzej Vukovar", "lat": 45.3524, "lon": 19.0039, "type": "museum", "city": "Vukovar" },
  { "name": "Muzej Apoksiomena", "lat": 44.5323, "lon": 14.4665, "type": "museum", "city": "Mali Losinj" },
  { "name": "Gradski muzej Karlovac", "lat": 45.4925, "lon": 15.5548, "type": "museum", "city": "Karlovac" },
  { "name": "Muzej Domovinskog rata Karlovac", "lat": 45.4619, "lon": 15.5621, "type": "museum", "city": "Karlovac" },
  { "name": "Aquatika - Slatkovodni akvarij Karlovac", "lat": 45.4855, "lon": 15.5612, "type": "museum", "city": "Karlovac" },
  { "name": "Gradski muzej Šibenik", "lat": 43.7348, "lon": 15.8895, "type": "museum", "city": "Sibenik" },
  { "name": "Civitas Sacra - Interpretacijski centar", "lat": 43.7351, "lon": 15.8912, "type": "museum", "city": "Sibenik" },
  { "name": "Muzej grada Kaštela", "lat": 43.5489, "lon": 16.3312, "type": "museum", "city": "Kastela" },
  { "name": "Muzej grada Trogira", "lat": 43.5175, "lon": 16.2505, "type": "museum", "city": "Trogir" },
  { "name": "Arheološki muzej Narona", "lat": 43.0811, "lon": 17.6278, "type": "museum", "city": "Metkovic" },
  { "name": "Gradski muzej Korčula", "lat": 42.9615, "lon": 17.1357, "type": "museum", "city": "Korcula" },
  { "name": "Zavičajni muzej Poreštine", "lat": 45.2281, "lon": 13.5931, "type": "museum", "city": "Porec" },
  { "name": "Zavičajni muzej grada Rovinja", "lat": 45.0825, "lon": 13.6335, "type": "museum", "city": "Rovinj" },
  { "name": "Ekomuzej Batana", "lat": 45.0821, "lon": 13.6322, "type": "museum", "city": "Rovinj" },
  { "name": "Etnografski muzej Istre", "lat": 45.2405, "lon": 13.9392, "type": "museum", "city": "Pazin" },
  { "name": "Muzej grada Pazina", "lat": 45.2404, "lon": 13.9391, "type": "museum", "city": "Pazin" },
  { "name": "Muzej Međimurja Čakovec", "lat": 46.3845, "lon": 16.4341, "type": "museum", "city": "Cakovec" },
  { "name": "Gradski muzej Požega", "lat": 45.3331, "lon": 17.6765, "type": "museum", "city": "Pozega" },
  { "name": "Gradski muzej Bjelovar", "lat": 45.8992, "lon": 16.8431, "type": "museum", "city": "Bjelovar" },
  { "name": "Gradski muzej Sisak", "lat": 45.4852, "lon": 16.3751, "type": "museum", "city": "Sisak" },
  { "name": "Muzej seljačkih buna", "lat": 45.9892, "lon": 15.9712, "type": "museum", "city": "Gornja Stubica" },
  { "name": "Gradski muzej Vinkovci", "lat": 45.2882, "lon": 18.8055, "type": "museum", "city": "Vinkovci" },
  { "name": "Muzej grada Koprivnice", "lat": 46.1625, "lon": 16.8305, "type": "museum", "city": "Koprivnica" },
  { "name": "Muzej Đakovštine", "lat": 45.3111, "lon": 18.4112, "type": "museum", "city": "Dakovo" },
  { "name": "Muzej ninskih starina", "lat": 44.2431, "lon": 15.1835, "type": "museum", "city": "Nin" },
  { "name": "Muzej solane Nin", "lat": 44.2411, "lon": 15.1925, "type": "museum", "city": "Nin" },
  { "name": "Muzej Croata insulanus", "lat": 46.3452, "lon": 16.6341, "type": "museum", "city": "Prelog" },
  { "name": "Zavičajni muzej Buzet", "lat": 45.4082, "lon": 13.9645, "type": "museum", "city": "Buzet" },
  { "name": "Muzej Lapidarium", "lat": 45.3151, "lon": 13.5605, "type": "museum", "city": "Novigrad" },
  { "name": "Muzej betinske drvene brodogradnje", "lat": 43.8272, "lon": 15.6035, "type": "museum", "city": "Betina" },
  { "name": "Gradski muzej Senj", "lat": 44.9892, "lon": 14.9042, "type": "museum", "city": "Senj" },
  { "name": "Muzej Gacke", "lat": 44.8712, "lon": 15.2341, "type": "museum", "city": "Otočac" },
  { "name": "Zavičajni muzej Ogulin", "lat": 45.2661, "lon": 15.2235, "type": "museum", "city": "Ogulin" },
  { "name": "Planinarski muzej", "lat": 45.2655, "lon": 15.2241, "type": "museum", "city": "Ogulin" },
  { "name": "Zavičajni muzej Našice", "lat": 45.4912, "lon": 18.0921, "type": "museum", "city": "Nasice" },
  { "name": "Gradski muzej Drniš", "lat": 43.8631, "lon": 16.1512, "type": "museum", "city": "Drnis" },
  { "name": "Kninski muzej", "lat": 44.0321, "lon": 16.1915, "type": "museum", "city": "Knin" },
  { "name": "Muzej planinarstva", "lat": 46.2162, "lon": 16.1245, "type": "museum", "city": "Ivanec" },
  { "name": "Muzej Radboa", "lat": 46.1661, "lon": 15.9182, "type": "museum", "city": "Radoboj" },
  { "name": "Muzej grada Pakraca", "lat": 45.4371, "lon": 17.1912, "type": "museum", "city": "Pakrac" },
  { "name": "Zavičajni muzej Daruvar", "lat": 45.5925, "lon": 17.2241, "type": "museum", "city": "Daruvar" },
  { "name": "Muzej Moslavine", "lat": 45.4815, "lon": 16.7801, "type": "museum", "city": "Kutina" },
  { "name": "Zavičajni muzej Biograd na Moru", "lat": 43.9381, "lon": 15.4432, "type": "museum", "city": "Biograd na Moru" },
  { "name": "Gradski muzej Makarska", "lat": 43.2942, "lon": 17.0185, "type": "museum", "city": "Makarska" },
  { "name": "Malakološki muzej", "lat": 43.2925, "lon": 17.0221, "type": "museum", "city": "Makarska" },  
  { "name": "Muzej triljskog kraja", "lat": 43.6165, "lon": 16.7252, "type": "museum", "city": "Trilj" },
  { "name": "Muzej sinjske alke", "lat": 43.7025, "lon": 16.6355, "type": "museum", "city": "Sinj" },
  { "name": "Dvorac Trakošćan", "lat": 46.2586, "lon": 15.9511, "type": "castle", "city": "Bednja" },
  { "name": "Dvorac Veliki Tabor", "lat": 46.1544, "lon": 15.6514, "type": "castle", "city": "Desinic" },
  { "name": "Tvrđava Klis", "lat": 43.5601, "lon": 16.5238, "type": "castle", "city": "Klis" },
  { "name": "Kninska tvrđava", "lat": 44.0322, "lon": 16.1917, "type": "castle", "city": "Knin" },
  { "name": "Tvrđava Brod", "lat": 45.1554, "lon": 18.0125, "type": "castle", "city": "Slavonski Brod" },
  { "name": "Dvorac Odescalchi", "lat": 45.2241, "lon": 19.3735, "type": "castle", "city": "Ilok" },
  { "name": "Stari grad Čakovec", "lat": 46.3845, "lon": 16.4344, "type": "castle", "city": "Cakovec" },
  { "name": "Dvorac Prandau-Normann", "lat": 45.6592, "lon": 18.4144, "type": "castle", "city": "Valpovo" },
  { "name": "Dvorac Pejačević Našice", "lat": 45.4915, "lon": 18.0921, "type": "castle", "city": "Nasice" },
  { "name": "Dvorac Pejačević Virovitica", "lat": 45.8322, "lon": 17.3851, "type": "castle", "city": "Virovitica" },
  { "name": "Dvorac Eltz", "lat": 45.3521, "lon": 19.0041, "type": "castle", "city": "Vukovar" },
  { "name": "Tvrđava sv. Nikole", "lat": 43.7214, "lon": 15.8524, "type": "castle", "city": "Sibenik" },
  { "name": "Tvrđava Lovrijenac", "lat": 42.6411, "lon": 18.1044, "type": "castle", "city": "Dubrovnik" },
  { "name": "Tvrđava Revelin", "lat": 42.6416, "lon": 18.1126, "type": "castle", "city": "Dubrovnik" },
  { "name": "Tvrđava Minčeta", "lat": 42.6424, "lon": 18.1086, "type": "castle", "city": "Dubrovnik" },
  { "name": "Tvrđava Bokar", "lat": 42.6405, "lon": 18.1058, "type": "castle", "city": "Dubrovnik" },
  { "name": "Gradina Trsat", "lat": 45.3315, "lon": 14.4561, "type": "castle", "city": "Rijeka" },
  { "name": "Tvrđava Nehaj", "lat": 44.9888, "lon": 14.9042, "type": "castle", "city": "Senj" },
  { "name": "Kaštel Pazin", "lat": 45.2404, "lon": 13.9391, "type": "castle", "city": "Pazin" },
  { "name": "Kaštel Morosini-Grimani", "lat": 45.0872, "lon": 13.8824, "type": "castle", "city": "Svetvincenat" },
  { "name": "Dvigrad", "lat": 45.1258, "lon": 13.8118, "type": "castle", "city": "Kanfanar" },
  { "name": "Stari grad Đurđevac", "lat": 46.0424, "lon": 17.0781, "type": "castle", "city": "Durdevac" },
  { "name": "Stari grad Sisak", "lat": 45.4744, "lon": 16.3912, "type": "castle", "city": "Sisak" },
  { "name": "Stari grad Samobor", "lat": 45.8005, "lon": 15.7025, "type": "castle", "city": "Samobor" },
  { "name": "Stari grad Okić", "lat": 45.7508, "lon": 15.7011, "type": "castle", "city": "Sveti Martin pod Okicem" },
  { "name": "Gradina Drivenik", "lat": 45.2405, "lon": 14.6542, "type": "castle", "city": "Drivenik" },
  { "name": "Gradina Hreljin", "lat": 45.2858, "lon": 14.6065, "type": "castle", "city": "Hreljin" },
  { "name": "Gradina Grižane", "lat": 45.1848, "lon": 14.7332, "type": "castle", "city": "Grizane" },
  { "name": "Tvrđava Badanj", "lat": 45.1764, "lon": 14.7078, "type": "castle", "city": "Crikvenica" },
  { "name": "Tvrđava Kamičak", "lat": 43.7024, "lon": 16.6361, "type": "castle", "city": "Sinj" },
  { "name": "Tvrđava Prozor", "lat": 43.9105, "lon": 16.4024, "type": "castle", "city": "Vrlika" },
  { "name": "Tvrđava Glavaš", "lat": 43.9452, "lon": 16.4172, "type": "castle", "city": "Civljane" },
  { "name": "Tvrđava Fortica Hvar", "lat": 43.1751, "lon": 16.4428, "type": "castle", "city": "Hvar" },
  { "name": "Tvrđava Fortica Omiš", "lat": 43.4442, "lon": 16.6948, "type": "castle", "city": "Omis" },
  { "name": "Tvrđava Starigrad", "lat": 43.4474, "lon": 16.7001, "type": "castle", "city": "Omis" },
  { "name": "Tvrđava sv. Mihovila Preko", "lat": 44.0932, "lon": 15.1508, "type": "castle", "city": "Preko" },
  { "name": "Kula Kamerlengo", "lat": 43.5152, "lon": 16.2474, "type": "castle", "city": "Trogir" },
  { "name": "Kula svetog Marka Trogir", "lat": 43.5162, "lon": 16.2482, "type": "castle", "city": "Trogir" },
  { "name": "Mletačka kula Split", "lat": 43.5074, "lon": 16.4385, "type": "castle", "city": "Split" },
  { "name": "Tvrđava Gripe", "lat": 43.5095, "lon": 16.4524, "type": "castle", "city": "Split" },
  { "name": "Tvrđava Mirabella", "lat": 43.4452, "lon": 16.6914, "type": "castle", "city": "Omis" },
  { "name": "Tvrđava Sokol", "lat": 42.5485, "lon": 18.3768, "type": "castle", "city": "Dunave" },
  { "name": "Kaštilac", "lat": 43.5539, "lon": 16.3921, "type": "castle", "city": "Kastel Gomilica" },
  { "name": "Kaštel Vitturi", "lat": 43.5532, "lon": 16.3725, "type": "castle", "city": "Kastel Luksic" },
  { "name": "Kaštel Rotondo", "lat": 43.5541, "lon": 16.3414, "type": "castle", "city": "Kastel Stafilic" },
  { "name": "Tvrđava Barone", "lat": 43.7385, "lon": 15.8954, "type": "castle", "city": "Sibenik" },
  { "name": "Stari grad Dubovac", "lat": 45.4951, "lon": 15.5284, "type": "castle", "city": "Karlovac" },
  { "name": "Stari grad Ozalj", "lat": 45.6151, "lon": 15.4741, "type": "castle", "city": "Ozalj" },
  { "name": "Medvedgrad", "lat": 45.8715, "lon": 15.9412, "type": "castle", "city": "Zagreb" },
  { "name": "Dvorac Maruševec", "lat": 46.2861, "lon": 16.1855, "type": "castle", "city": "Marusevec" },
  { "name": "Umjetnički paviljon", "lat": 45.8078, "lon": 15.9785, "type": "gallery", "city": "Zagreb" },
  { "name": "Moderna galerija", "lat": 45.8105, "lon": 15.9791, "type": "gallery", "city": "Zagreb" },
  { "name": "Galerija Meštrović", "lat": 43.5065, "lon": 16.4158, "type": "gallery", "city": "Split" },
  { "name": "Atelijer Meštrović", "lat": 45.8164, "lon": 15.9741, "type": "gallery", "city": "Zagreb" },
  { "name": "Umjetnička galerija Dubrovnik", "lat": 42.6414, "lon": 18.1172, "type": "gallery", "city": "Dubrovnik" },
  { "name": "Galerija Klovićevi dvori", "lat": 45.8152, "lon": 15.9741, "type": "gallery", "city": "Zagreb" },
  { "name": "Strossmayerova galerija starih majstora", "lat": 45.8094, "lon": 15.9781, "type": "gallery", "city": "Zagreb" },
  { "name": "Gliptoteka HAZU", "lat": 45.8235, "lon": 15.9764, "type": "gallery", "city": "Zagreb" },
  { "name": "Kabinet grafike HAZU", "lat": 45.8115, "lon": 15.9774, "type": "gallery", "city": "Zagreb" },
  { "name": "Galerija Krsto Hegedušić", "lat": 45.4412, "lon": 16.2842, "type": "gallery", "city": "Petrinja" },
  { "name": "Galerija umjetnina Split", "lat": 43.5125, "lon": 16.4395, "type": "gallery", "city": "Split" },
  { "name": "Galerija Vjekoslav Karas", "lat": 45.4985, "lon": 15.5484, "type": "gallery", "city": "Karlovac" },
  { "name": "Galerija grada Krapine", "lat": 46.1625, "lon": 15.8741, "type": "gallery", "city": "Krapina" },
  { "name": "Gradska galerija Striegl", "lat": 45.4851, "lon": 16.3745, "type": "gallery", "city": "Sisak" },
  { "name": "Galerija Ružić", "lat": 45.1555, "lon": 18.0124, "type": "gallery", "city": "Slavonski Brod" },
  { "name": "Galerija Galženica", "lat": 45.7144, "lon": 16.0711, "type": "gallery", "city": "Velika Gorica" },
  { "name": "Galerija Vlaho Bukovac", "lat": 42.5815, "lon": 18.2185, "type": "gallery", "city": "Cavtat" },
  { "name": "Galerija Dulčić Masle Pulitika", "lat": 42.6401, "lon": 18.1105, "type": "gallery", "city": "Dubrovnik" },
  { "name": "Galerija Antuna Augustinčića", "lat": 46.0465, "lon": 15.7118, "type": "gallery", "city": "Klanjec" },
  { "name": "Galerija umjetnina Zadar", "lat": 44.1144, "lon": 15.2281, "type": "gallery", "city": "Zadar" },
  { "name": "Lauba", "lat": 45.8115, "lon": 15.9412, "type": "gallery", "city": "Zagreb" },
  { "name": "Galerija Forum", "lat": 45.8124, "lon": 15.9751, "type": "gallery", "city": "Zagreb" },
  { "name": "Galerija SC", "lat": 45.8035, "lon": 15.9674, "type": "gallery", "city": "Zagreb" },
  { "name": "Galerija VN", "lat": 45.8122, "lon": 15.9701, "type": "gallery", "city": "Zagreb" },
  { "name": "Galerija Matice hrvatske", "lat": 45.8074, "lon": 15.9811, "type": "gallery", "city": "Zagreb" },
  { "name": "Galerija Kula", "lat": 43.5105, "lon": 16.4381, "type": "gallery", "city": "Split" },
  { "name": "Salon Galić", "lat": 43.5101, "lon": 16.4392, "type": "gallery", "city": "Split" },
  { "name": "Galerija Fotoklub Split", "lat": 43.5102, "lon": 16.4394, "type": "gallery", "city": "Split" },
  { "name": "Galerija umjetnina Bol", "lat": 43.2612, "lon": 16.6565, "type": "gallery", "city": "Bol" },
  { "name": "Galerija Decumanus", "lat": 45.0264, "lon": 14.5751, "type": "gallery", "city": "Krk" },
  { "name": "Galerija Kortil", "lat": 45.3275, "lon": 14.4501, "type": "gallery", "city": "Rijeka" },
  { "name": "Galerija Juraj Klović", "lat": 45.3265, "lon": 14.4441, "type": "gallery", "city": "Rijeka" },
  { "name": "Gradska galerija Labin", "lat": 45.0935, "lon": 14.1235, "type": "gallery", "city": "Labin" },
  { "name": "Galerija Alvona", "lat": 45.0931, "lon": 14.1241, "type": "gallery", "city": "Labin" },
  { "name": "Galerija Zuccato", "lat": 45.2274, "lon": 13.5931, "type": "gallery", "city": "Porec" },
  { "name": "Galerija Rigo", "lat": 45.3151, "lon": 13.5601, "type": "gallery", "city": "Novigrad" },
  { "name": "Galerija Batana", "lat": 45.0825, "lon": 13.6324, "type": "gallery", "city": "Rovinj" },
  { "name": "Galerija Adris", "lat": 45.0815, "lon": 13.6351, "type": "gallery", "city": "Rovinj" },
  { "name": "Galerija Fonticus", "lat": 45.3781, "lon": 13.7225, "type": "gallery", "city": "Groznjan" },
  { "name": "Galerija Sebastijan", "lat": 42.6405, "lon": 18.1101, "type": "gallery", "city": "Dubrovnik" },
  { "name": "Galerija Otok", "lat": 42.6401, "lon": 18.1131, "type": "gallery", "city": "Dubrovnik" },
  { "name": "Galerija Flora", "lat": 42.6415, "lon": 18.1171, "type": "gallery", "city": "Dubrovnik" },
  { "name": "Galerija Gal", "lat": 45.3268, "lon": 14.4452, "type": "gallery", "city": "Rijeka" },
  { "name": "Galerija Emanuel Vidović", "lat": 43.5085, "lon": 16.4412, "type": "gallery", "city": "Split" },
  { "name": "Galerija Branislav Dešković", "lat": 43.2611, "lon": 16.6561, "type": "gallery", "city": "Bol" },
  { "name": "Galerija ljetnikovac Bunić-Kaboga", "lat": 42.6631, "lon": 18.0825, "type": "gallery", "city": "Dubrovnik" },
  { "name": "Galerija Krševan", "lat": 43.7351, "lon": 15.8901, "type": "gallery", "city": "Sibenik" },
  { "name": "Galerija Šira", "lat": 45.8112, "lon": 15.9681, "type": "gallery", "city": "Zagreb" },
  { "name": "Galerija Bačva", "lat": 45.8062, "lon": 15.9871, "type": "gallery", "city": "Zagreb" },
  { "name": "Galerija Prsten", "lat": 45.8063, "lon": 15.9872, "type": "gallery", "city": "Zagreb" },
  { "name": "Dioklecijanova palača", "lat": 43.5081, "lon": 16.4402, "type": "historic_site", "city": "Split" },
  { "name": "Dubrovačke gradske zidine", "lat": 42.6411, "lon": 18.1072, "type": "historic_site", "city": "Dubrovnik" },
  { "name": "Pulska Arena", "lat": 44.8732, "lon": 13.8501, "type": "historic_site", "city": "Pula" },
  { "name": "Starogradsko polje", "lat": 43.1824, "lon": 16.6015, "type": "historic_site", "city": "Stari Grad" },
  { "name": "Rimska Salona", "lat": 43.5385, "lon": 16.4832, "type": "historic_site", "city": "Solin" },
  { "name": "Rimski forum u Zadru", "lat": 44.1158, "lon": 15.2245, "type": "historic_site", "city": "Zadar" },
  { "name": "Stonske zidine", "lat": 42.8412, "lon": 17.6971, "type": "historic_site", "city": "Ston" },
  { "name": "Augustov hram", "lat": 44.8702, "lon": 13.8419, "type": "historic_site", "city": "Pula" },
  { "name": "Slavoluk Sergijevaca", "lat": 44.8681, "lon": 13.8475, "type": "historic_site", "city": "Pula" },
  { "name": "Arheološki lokalitet Vučedol", "lat": 45.3364, "lon": 19.0585, "type": "historic_site", "city": "Vukovar" },
  { "name": "Hušnjakovo brdo (Krapinski pračovjek)", "lat": 46.1645, "lon": 15.8645, "type": "historic_site", "city": "Krapina" },
  { "name": "Povijesna jezgra Trogira", "lat": 43.5172, "lon": 16.2515, "type": "historic_site", "city": "Trogir" },
  { "name": "Vrata od Pila", "lat": 42.6414, "lon": 18.1069, "type": "historic_site", "city": "Dubrovnik" },
  { "name": "Vrata od Ploča", "lat": 42.6416, "lon": 18.1124, "type": "historic_site", "city": "Dubrovnik" },
  { "name": "Peristil", "lat": 43.5083, "lon": 16.4404, "type": "historic_site", "city": "Split" },
  { "name": "Jupiterov hram", "lat": 43.5081, "lon": 16.4398, "type": "historic_site", "city": "Split" },
  { "name": "Zlatna vrata", "lat": 43.5094, "lon": 16.4404, "type": "historic_site", "city": "Split" },
  { "name": "Srebrna vrata", "lat": 43.5085, "lon": 16.4411, "type": "historic_site", "city": "Split" },
  { "name": "Željezna vrata", "lat": 43.5083, "lon": 16.4392, "type": "historic_site", "city": "Split" },
  { "name": "Mjedena vrata", "lat": 43.5074, "lon": 16.4404, "type": "historic_site", "city": "Split" },
  { "name": "Povijesna jezgra Varaždina", "lat": 46.3072, "lon": 16.3375, "type": "historic_site", "city": "Varazdin" },
  { "name": "Andautonija", "lat": 45.7665, "lon": 16.1165, "type": "historic_site", "city": "Scitarjevo" },
  { "name": "Aquae Iasae", "lat": 46.2125, "lon": 16.3884, "type": "historic_site", "city": "Varazdinske Toplice" },
  { "name": "Arheološki lokalitet Burnum", "lat": 44.0185, "lon": 16.0195, "type": "historic_site", "city": "Ivosevci" },
  { "name": "Bribirska glavica", "lat": 43.9165, "lon": 15.8452, "type": "historic_site", "city": "Bribir" },
  { "name": "Vela Spila", "lat": 42.9642, "lon": 16.7185, "type": "historic_site", "city": "Vela Luka" },
  { "name": "Povijesni centar Motovuna", "lat": 45.3365, "lon": 13.8285, "type": "historic_site", "city": "Motovun" },
  { "name": "Gradske zidine Korčule", "lat": 42.9615, "lon": 17.1352, "type": "historic_site", "city": "Korcula" },
  { "name": "Rimski vojni logor Tilurium", "lat": 43.6185, "lon": 16.7324, "type": "historic_site", "city": "Gardun" },
  { "name": "Antička Narona", "lat": 43.0815, "lon": 17.6275, "type": "historic_site", "city": "Vid" },
  { "name": "Ninske gradske zidine", "lat": 44.2432, "lon": 15.1845, "type": "historic_site", "city": "Nin" },
  { "name": "Donja vrata (Nin)", "lat": 44.2421, "lon": 15.1841, "type": "historic_site", "city": "Nin" },
  { "name": "Gornja vrata (Nin)", "lat": 44.2444, "lon": 15.1852, "type": "historic_site", "city": "Nin" },
  { "name": "Mali Ston - zidine", "lat": 42.8485, "lon": 17.7025, "type": "historic_site", "city": "Mali Ston" },
  { "name": "Dioklecijanov akvedukt", "lat": 43.5215, "lon": 16.4864, "type": "historic_site", "city": "Split" },
  { "name": "Mletačke zidine u Zadru", "lat": 44.1152, "lon": 15.2295, "type": "historic_site", "city": "Zadar" },
  { "name": "Kopnena vrata (Zadar)", "lat": 44.1128, "lon": 15.2298, "type": "historic_site", "city": "Zadar" },
  { "name": "Vrata sv. Krševana (Zadar)", "lat": 44.1171, "lon": 15.2255, "type": "historic_site", "city": "Zadar" },
  { "name": "Asseria", "lat": 44.0124, "lon": 15.6785, "type": "historic_site", "city": "Podgrade" },
  { "name": "Varvaria", "lat": 43.9168, "lon": 15.8445, "type": "historic_site", "city": "Bribir" },
  { "name": "Arheološki park Vižula", "lat": 44.8215, "lon": 13.9242, "type": "historic_site", "city": "Medulin" },
  { "name": "Herkulova vrata", "lat": 44.8705, "lon": 13.8485, "type": "historic_site", "city": "Pula" },
  { "name": "Dvojna vrata", "lat": 44.8708, "lon": 13.8489, "type": "historic_site", "city": "Pula" },
  { "name": "Malo rimsko kazalište", "lat": 44.8698, "lon": 13.8474, "type": "historic_site", "city": "Pula" },
  { "name": "Rimski mozaik 'Kažnjavanje Dirke'", "lat": 44.8685, "lon": 13.8425, "type": "historic_site", "city": "Pula" },
  { "name": "Aenona - antički Nin", "lat": 44.2434, "lon": 15.1848, "type": "historic_site", "city": "Nin" },
  { "name": "Iader - antički Zadar", "lat": 44.1162, "lon": 15.2241, "type": "historic_site", "city": "Zadar" },
  { "name": "Curicum - antički Krk", "lat": 45.0258, "lon": 14.5752, "type": "historic_site", "city": "Krk" },
  { "name": "Gradske zidine Krka", "lat": 45.0265, "lon": 14.5765, "type": "historic_site", "city": "Krk" },
  { "name": "Arheološki lokalitet Cista Velika", "lat": 43.5124, "lon": 16.8852, "type": "historic_site", "city": "Cista Provo" },
  { "name": "Nekropola stećaka Dubravka", "lat": 42.5312, "lon": 18.4145, "type": "historic_site", "city": "Konavle" },
  { "name": "Fortifikacijski sustav Osijeka (Tvrđa)", "lat": 45.5608, "lon": 18.6965, "type": "historic_site", "city": "Osijek" },
  { "name": "Velika Onofrijeva česma", "lat": 42.6413, "lon": 18.1072, "type": "historic_site", "city": "Dubrovnik" },
  { "name": "Mala Onofrijeva česma", "lat": 42.6411, "lon": 18.1106, "type": "historic_site", "city": "Dubrovnik" },
  { "name": "Knežev dvor", "lat": 42.6402, "lon": 18.1105, "type": "historic_site", "city": "Dubrovnik" },
  { "name": "Palača Sponza", "lat": 42.6411, "lon": 18.1104, "type": "historic_site", "city": "Dubrovnik" },
  { "name": "Stradun (Placa)", "lat": 42.6412, "lon": 18.1092, "type": "historic_site", "city": "Dubrovnik" },
  { "name": "Luža - zvonik", "lat": 42.6412, "lon": 18.1106, "type": "historic_site", "city": "Dubrovnik" },
  { "name": "Gradska loža Trogir", "lat": 43.5168, "lon": 16.2514, "type": "historic_site", "city": "Trogir" },
  { "name": "Palača Cipiko", "lat": 43.5171, "lon": 16.2511, "type": "historic_site", "city": "Trogir" },
  { "name": "Kula sv. Nikole (Dubrovnik)", "lat": 42.6395, "lon": 18.1128, "type": "historic_site", "city": "Dubrovnik" },
  { "name": "Kula Mulo", "lat": 42.6392, "lon": 18.1124, "type": "historic_site", "city": "Dubrovnik" },
  { "name": "Benediktinski samostan sv. Marije", "lat": 44.1158, "lon": 15.2255, "type": "historic_site", "city": "Zadar" },
  { "name": "Palača Milesi", "lat": 43.5076, "lon": 16.4385, "type": "historic_site", "city": "Split" },
  { "name": "Palača Papalić", "lat": 43.5092, "lon": 16.4402, "type": "historic_site", "city": "Split" },
  { "name": "Staro groblje Boninovo", "lat": 42.6452, "lon": 18.0945, "type": "historic_site", "city": "Dubrovnik" },
  { "name": "Povijesna jezgra Grožnjana", "lat": 45.3782, "lon": 13.7224, "type": "historic_site", "city": "Groznjan" },
  { "name": "Povijesna jezgra Hvara", "lat": 43.1725, "lon": 16.4421, "type": "historic_site", "city": "Hvar" },
  { "name": "Hvarsko kazalište (Arsenal)", "lat": 43.1715, "lon": 16.4411, "type": "historic_site", "city": "Hvar" },
  { "name": "Mletački kaštel u Splitu", "lat": 43.5075, "lon": 16.4384, "type": "historic_site", "city": "Split" },
  { "name": "Gradska vrata Labin", "lat": 45.0935, "lon": 14.1235, "type": "historic_site", "city": "Labin" },
  { "name": "Rimski kameni most u Kosinju", "lat": 44.7335, "lon": 15.2815, "type": "historic_site", "city": "Kosinj" },
  { "name": "Arheološki park Ščitarjevo", "lat": 45.7668, "lon": 16.1162, "type": "historic_site", "city": "Velika Gorica" },
  { "name": "Staro kršćanska bazilika u Zavali", "lat": 43.1245, "lon": 16.7112, "type": "historic_site", "city": "Hvar" },
  { "name": "Ljetnikovac Petra Hektorovića (Tvrdalj)", "lat": 43.1845, "lon": 16.5964, "type": "historic_site", "city": "Stari Grad" },
  { "name": "Palača Biankini", "lat": 43.1848, "lon": 16.5958, "type": "historic_site", "city": "Stari Grad" },
  { "name": "Dominikanski samostan sv. Petra Mučenika", "lat": 43.1852, "lon": 16.6012, "type": "historic_site", "city": "Stari Grad" },
  { "name": "Arheološki lokalitet Remetinec", "lat": 46.2512, "lon": 16.3545, "type": "historic_site", "city": "Novi Marof" },
  { "name": "Starohrvatska bazilika sv. Spasa", "lat": 43.9515, "lon": 16.4312, "type": "historic_site", "city": "Vrlika" },
  { "name": "Rimski bedemi u Senju", "lat": 44.9895, "lon": 14.9045, "type": "historic_site", "city": "Senj" },
  { "name": "Velika vrata (Senj)", "lat": 44.9902, "lon": 14.9051, "type": "historic_site", "city": "Senj" },
  { "name": "Benediktinski samostan sv. Ivana Evanđelista", "lat": 44.7565, "lon": 14.7612, "type": "historic_site", "city": "Rab" },
  { "name": "Knežev dvor u Rabu", "lat": 44.7552, "lon": 14.7605, "type": "historic_site", "city": "Rab" },
  { "name": "Antički mozaici u Risnu", "lat": 42.5085, "lon": 18.6945, "type": "historic_site", "city": "Cavtat" },
  { "name": "Arheološki lokalitet Gromače", "lat": 44.9125, "lon": 13.7654, "type": "historic_site", "city": "Brijuni" },
  { "name": "Bizantski kastrum na Brijunima", "lat": 44.9142, "lon": 13.7552, "type": "historic_site", "city": "Brijuni" },
  { "name": "Rimska vila u uvali Verige", "lat": 44.9165, "lon": 13.7685, "type": "historic_site", "city": "Brijuni" },
  { "name": "Arheološko nalazište Gradina", "lat": 44.9185, "lon": 13.7612, "type": "historic_site", "city": "Brijuni" },
  { "name": "Staro kršćanska bazilika sv. Marije", "lat": 44.9155, "lon": 13.7542, "type": "historic_site", "city": "Brijuni" },
  { "name": "Povijesna jezgra Mošćenica", "lat": 45.2285, "lon": 14.2485, "type": "historic_site", "city": "Moscenice" },
  { "name": "Ljetnikovac Bunić-Kaboga", "lat": 42.6635, "lon": 18.0824, "type": "historic_site", "city": "Dubrovnik" },
  { "name": "Ljetnikovac Sorkočević", "lat": 42.6595, "lon": 18.0852, "type": "historic_site", "city": "Dubrovnik" },
  { "name": "Palača Skočibuha", "lat": 42.6405, "lon": 18.1098, "type": "historic_site", "city": "Dubrovnik" },
  { "name": "Arheološki lokalitet Mirine-Fulfinum", "lat": 45.2152, "lon": 14.5485, "type": "historic_site", "city": "Omisalj" },
  { "name": "Ranokršćanski kompleks u uvali Sepen", "lat": 45.2165, "lon": 14.5492, "type": "historic_site", "city": "Omisalj" },
  { "name": "Antička Issa", "lat": 43.0645, "lon": 16.1852, "type": "historic_site", "city": "Vis" },
  { "name": "Rimski termi u Visu", "lat": 43.0652, "lon": 16.1864, "type": "historic_site", "city": "Vis" },
  { "name": "Grčka nekropola Martvilo", "lat": 43.0635, "lon": 16.1825, "type": "historic_site", "city": "Vis" },
  { "name": "Arheološki lokalitet Colentum", "lat": 43.8245, "lon": 15.5852, "type": "historic_site", "city": "Murter" },
  { "name": "Povijesna jezgra Oprtlja", "lat": 45.3812, "lon": 13.8245, "type": "historic_site", "city": "Oprtalj" },
  { "name": "Spomenik banu Josipu Jelačiću", "lat": 45.8130, "lon": 15.9772, "type": "statue", "city": "Zagreb" },
  { "name": "Kralj Tomislav", "lat": 45.8052, "lon": 15.9789, "type": "statue", "city": "Zagreb" },
  { "name": "Grgur Ninski (Split)", "lat": 43.5097, "lon": 16.4403, "type": "statue", "city": "Split" },
  { "name": "Orlandov stup", "lat": 42.6410, "lon": 18.1106, "type": "statue", "city": "Dubrovnik" },
  { "name": "Zdenac života", "lat": 45.8101, "lon": 15.9701, "type": "statue", "city": "Zagreb" },
  { "name": "Povijest Hrvata", "lat": 45.8114, "lon": 15.9781, "type": "statue", "city": "Zagreb" },
  { "name": "Spomenik Nikoli Tesli", "lat": 45.8124, "lon": 15.9760, "type": "statue", "city": "Zagreb" },
  { "name": "Sveti Juraj ubija zmaja", "lat": 45.8151, "lon": 15.9754, "type": "statue", "city": "Zagreb" },
  { "name": "Marko Marulić", "lat": 43.5074, "lon": 16.4384, "type": "statue", "city": "Split" },
  { "name": "Juraj Dalmatinac", "lat": 43.7354, "lon": 15.8894, "type": "statue", "city": "Sibenik" },
  { "name": "Dražen Petrović", "lat": 43.7314, "lon": 15.8952, "type": "statue", "city": "Sibenik" },
  { "name": "Grgur Ninski (Nin)", "lat": 44.2428, "lon": 15.1842, "type": "statue", "city": "Nin" },
  { "name": "Grgur Ninski (Varaždin)", "lat": 46.3075, "lon": 16.3364, "type": "statue", "city": "Varazdin" },
  { "name": "Spomenik Mariji Jurić Zagorki", "lat": 45.8141, "lon": 15.9765, "type": "statue", "city": "Zagreb" },
  { "name": "A.G. Matoš na klupi", "lat": 45.8152, "lon": 15.9734, "type": "statue", "city": "Zagreb" },
  { "name": "Spomenik Augustu Šenoi", "lat": 45.8121, "lon": 15.9804, "type": "statue", "city": "Zagreb" },
  { "name": "Petar Preradović", "lat": 45.8124, "lon": 15.9749, "type": "statue", "city": "Zagreb" },
  { "name": "Tin Ujević", "lat": 45.8119, "lon": 15.9685, "type": "statue", "city": "Zagreb" },
  { "name": "Kumica Barica", "lat": 45.8138, "lon": 15.9774, "type": "statue", "city": "Zagreb" },
  { "name": "Prizemljeno sunce", "lat": 45.8115, "lon": 15.9748, "type": "statue", "city": "Zagreb" },
  { "name": "Bacač diska", "lat": 45.8159, "lon": 15.9815, "type": "statue", "city": "Zagreb" },
  { "name": "Spomenik kralju Krešimiru IV", "lat": 43.7312, "lon": 15.8925, "type": "statue", "city": "Sibenik" },
  { "name": "Spomenik pomorcu", "lat": 43.5015, "lon": 16.4468, "type": "statue", "city": "Split" },
  { "name": "Djevojka s galebom", "lat": 45.3338, "lon": 14.3079, "type": "statue", "city": "Opatija" },
  { "name": "Spomenik Mirku Bogoviću", "lat": 46.3081, "lon": 16.3385, "type": "statue", "city": "Varazdin" },
  { "name": "Sfinga u Zadru", "lat": 44.1235, "lon": 15.2155, "type": "statue", "city": "Zadar" },
  { "name": "Spomenik Špiri Brusini", "lat": 44.1132, "lon": 15.2224, "type": "statue", "city": "Zadar" },
  { "name": "Spomenik Anti Starčeviću", "lat": 45.5595, "lon": 18.6815, "type": "statue", "city": "Osijek" },
  { "name": "Spomenik kugi (Kužni pil)", "lat": 45.5608, "lon": 18.6958, "type": "statue", "city": "Osijek" },
  { "name": "Spomenik Picassu", "lat": 45.5621, "lon": 18.6784, "type": "statue", "city": "Osijek" },
  { "name": "Franjo Tuđman (Zagreb)", "lat": 45.8015, "lon": 15.9782, "type": "statue", "city": "Zagreb" },
  { "name": "Franjo Tuđman (Knin)", "lat": 44.0325, "lon": 16.1921, "type": "statue", "city": "Knin" },
  { "name": "Kameni cvijet", "lat": 45.2794, "lon": 16.9288, "type": "statue", "city": "Jasenovac" },
  { "name": "Galebova krila", "lat": 43.2384, "lon": 17.0781, "type": "statue", "city": "Podgora" },
  { "name": "Spomenik revoluciji naroda Moslavine", "lat": 45.6425, "lon": 16.7654, "type": "statue", "city": "Podgaric" },
  { "name": "Spomenik pobjedi", "lat": 45.9224, "lon": 19.1021, "type": "statue", "city": "Batina" },
  { "name": "Maro i Baro (Zelenci)", "lat": 42.6412, "lon": 18.1106, "type": "statue", "city": "Dubrovnik" },
  { "name": "Marin Držić", "lat": 42.6399, "lon": 18.1104, "type": "statue", "city": "Dubrovnik" },
  { "name": "Ivan Gundulić", "lat": 42.6402, "lon": 18.1098, "type": "statue", "city": "Dubrovnik" },
  { "name": "Sveti Vlaho", "lat": 42.6414, "lon": 18.1068, "type": "statue", "city": "Dubrovnik" },
  { "name": "Spomenik palim braniteljima", "lat": 45.3284, "lon": 14.4442, "type": "statue", "city": "Rijeka" },
  { "name": "Janko Polić Kamov", "lat": 45.3268, "lon": 14.4461, "type": "statue", "city": "Rijeka" },
  { "name": "Spomenik oslobođenju", "lat": 45.3255, "lon": 14.4532, "type": "statue", "city": "Rijeka" },
  { "name": "Sveti Vid", "lat": 45.3271, "lon": 14.4449, "type": "statue", "city": "Rijeka" },
  { "name": "Spomenik Ivanu Mažuraniću", "lat": 45.1274, "lon": 14.7915, "type": "statue", "city": "Novi Vinodolski" },
  { "name": "Frane Petrić", "lat": 44.8565, "lon": 14.4075, "type": "statue", "city": "Cres" },
  { "name": "Matija Gubec", "lat": 45.9895, "lon": 15.9721, "type": "statue", "city": "Gornja Stubica" },
  { "name": "Spomenik seljačkoj buni", "lat": 45.9892, "lon": 15.9715, "type": "statue", "city": "Gornja Stubica" },
  { "name": "Nikola Šubić Zrinski", "lat": 45.8085, "lon": 15.9785, "type": "statue", "city": "Zagreb" },
  { "name": "Eugen Kvaternik", "lat": 45.8152, "lon": 15.9924, "type": "statue", "city": "Zagreb" },
  { "name": "Većeslav Holjevac", "lat": 45.7895, "lon": 15.9784, "type": "statue", "city": "Zagreb" },
  { "name": "Spomenik Nikoli Tesli (Smiljan)", "lat": 44.5595, "lon": 15.3112, "type": "statue", "city": "Smiljan" },
  { "name": "Spomenik Ljudevitu Gaju", "lat": 46.1615, "lon": 15.8742, "type": "statue", "city": "Krapina" },
  { "name": "Spomenik Anti Starčeviću (Zagreb)", "lat": 45.8065, "lon": 15.9772, "type": "statue", "city": "Zagreb" },
  { "name": "Biskup Josip Juraj Strossmayer", "lat": 45.8088, "lon": 15.9781, "type": "statue", "city": "Zagreb" },
  { "name": "Fran Krsto Frankopan", "lat": 46.3082, "lon": 16.3365, "type": "statue", "city": "Varazdin" },
  { "name": "Petar Zrinski", "lat": 46.3083, "lon": 16.3366, "type": "statue", "city": "Varazdin" },
  { "name": "Luka Botić", "lat": 43.5072, "lon": 16.4391, "type": "statue", "city": "Split" },
  { "name": "Emanuel Vidović", "lat": 43.5065, "lon": 16.4412, "type": "statue", "city": "Split" },
  { "name": "Spomenik rudaru", "lat": 45.0932, "lon": 14.1238, "type": "statue", "city": "Labin" },
  { "name": "Matija Vlačić Ilirik", "lat": 45.0935, "lon": 14.1242, "type": "statue", "city": "Labin" },
  { "name": "Vjekoslav Karas", "lat": 45.4924, "lon": 15.5542, "type": "statue", "city": "Karlovac" },
  { "name": "Spomenik žrtvama fašizma", "lat": 45.4952, "lon": 15.5515, "type": "statue", "city": "Karlovac" },
  { "name": "Spomenik oslobođenju Knina", "lat": 44.0385, "lon": 16.1952, "type": "statue", "city": "Knin" },
  { "name": "Spomenik hrvatskoj pobjedi Oluja 95", "lat": 44.0345, "lon": 16.1965, "type": "statue", "city": "Knin" },
  { "name": "Spomenik zahvalnosti", "lat": 43.7335, "lon": 15.8912, "type": "statue", "city": "Sibenik" },
  { "name": "Dražen Petrović (Zagreb)", "lat": 45.8038, "lon": 15.9615, "type": "statue", "city": "Zagreb" },
  { "name": "Krunidba kralja Tomislava", "lat": 43.5365, "lon": 17.2285, "type": "statue", "city": "Tomislavgrad" },
  { "name": "Tin Ujević (Imotski)", "lat": 43.4475, "lon": 17.2135, "type": "statue", "city": "Imotski" },
  { "name": "Spomenik Hasanaginici", "lat": 43.4482, "lon": 17.2115, "type": "statue", "city": "Imotski" },
  { "name": "Frane Bulić", "lat": 43.5392, "lon": 16.4842, "type": "statue", "city": "Solin" },
  { "name": "Don Frane Bulić (Zagreb)", "lat": 45.8115, "lon": 15.9774, "type": "statue", "city": "Zagreb" },
  { "name": "Spomenik Nikoli Subiću Zrinskom (Siget)", "lat": 46.3842, "lon": 16.4338, "type": "statue", "city": "Cakovec" },
  { "name": "Spomenik borcima NOB", "lat": 44.1135, "lon": 15.2285, "type": "statue", "city": "Zadar" },
  { "name": "Petar Zoranić", "lat": 44.1128, "lon": 15.2292, "type": "statue", "city": "Zadar" },
  { "name": "Vladimir Nazor", "lat": 45.8192, "lon": 15.9625, "type": "statue", "city": "Zagreb" },
  { "name": "Spomenik Nikoli Tesli (Gospic)", "lat": 44.5465, "lon": 15.3751, "type": "statue", "city": "Gospic" },
  { "name": "Miroslav Krleža", "lat": 45.8174, "lon": 15.9675, "type": "statue", "city": "Zagreb" },
  { "name": "Andrija Kačić Miošić", "lat": 45.8129, "lon": 15.9688, "type": "statue", "city": "Zagreb" },
  { "name": "Fra Andrija Kačić Miošić (Makarska)", "lat": 43.2941, "lon": 17.0205, "type": "statue", "city": "Makarska" },
  { "name": "Spomenik palim borcima", "lat": 42.9615, "lon": 17.1362, "type": "statue", "city": "Korcula" },
  { "name": "Marco Polo", "lat": 42.9612, "lon": 17.1355, "type": "statue", "city": "Korcula" },
  { "name": "Spomenik hrvatskom domobranu", "lat": 45.5602, "lon": 18.6755, "type": "statue", "city": "Osijek" },
  { "name": "August Cesarec", "lat": 45.5585, "lon": 18.6821, "type": "statue", "city": "Osijek" },
  { "name": "Spomenik palim tenkistima", "lat": 45.5512, "lon": 18.6942, "type": "statue", "city": "Osijek" },
  { "name": "Spomenik žrtvama fašizma (Dotrščina)", "lat": 45.8452, "lon": 16.0152, "type": "statue", "city": "Zagreb" },
  { "name": "Spomenik strijeljanima (Rade Končar)", "lat": 43.7252, "lon": 15.9015, "type": "statue", "city": "Sibenik" },
  { "name": "Spomenik Nikoli Tesli (Poreč)", "lat": 45.2285, "lon": 13.5942, "type": "statue", "city": "Porec" },
  { "name": "Mate Parlov", "lat": 44.8615, "lon": 13.8452, "type": "statue", "city": "Pula" },
  { "name": "James Joyce", "lat": 44.8682, "lon": 13.8478, "type": "statue", "city": "Pula" },
  { "name": "Spomenik hrvatskoj himni", "lat": 46.0385, "lon": 15.7062, "type": "statue", "city": "Zelenjak" },
  { "name": "Spomenik braći Radić", "lat": 45.4842, "lon": 16.3745, "type": "statue", "city": "Sisak" },
  { "name": "Spomenik pobjedi (Kutina)", "lat": 45.4812, "lon": 16.7812, "type": "statue", "city": "Kutina" },
  { "name": "Ruđer Bošković", "lat": 45.8185, "lon": 15.9795, "type": "statue", "city": "Zagreb" },
  { "name": "Nikola Šubić Zrinski (Zrinjevac)", "lat": 45.8095, "lon": 15.9785, "type": "statue", "city": "Zagreb" },
  { "name": "Spomenik palim borcima (Vukovar)", "lat": 45.3525, "lon": 19.0045, "type": "statue", "city": "Vukovar" },
  { "name": "Jean-Michel Nicolier", "lat": 45.3518, "lon": 19.0051, "type": "statue", "city": "Vukovar" },
  { "name": "Križ na ušću Vuke u Dunav", "lat": 45.3528, "lon": 19.0065, "type": "statue", "city": "Vukovar" },
  { "name": "Spomenik djetetu", "lat": 45.8122, "lon": 15.9745, "type": "statue", "city": "Zagreb" },
  { "name": "Papa Ivan Pavao II", "lat": 45.3318, "lon": 14.4571, "type": "statue", "city": "Rijeka" }
]